[{"Transaction_date":"1\/2\/096:17","Product":"Product1","Price":"1200","Payment_Type":"Mastercard","Name":"carolina","City":"Basildon","State":"England","Country":"UnitedKingdom","Account_Created":"1\/2\/096:00","Last_Login":"1\/2\/096:08","Latitude":"51.5","Longitude":"-1.1166667","id":0},{"Transaction_date":"1\/2\/094:53","Product":"Product1","Price":"1200","Payment_Type":"Visa","Name":"Betina","City":"Parkville","State":"MO","Country":"UnitedStates","Account_Created":"1\/2\/094:42","Last_Login":"1\/2\/097:49","Latitude":"39.195","Longitude":"-94.68194","id":1},{"Transaction_date":"1\/2\/0913:08","Product":"Product1","Price":"1200","Payment_Type":"Mastercard","Name":"FedericaeAndrea","City":"Astoria","State":"OR","Country":"UnitedStates","Account_Created":"1\/1\/0916:21","Last_Login":"1\/3\/0912:32","Latitude":"46.18806","Longitude":"-123.83","id":2},{"Transaction_date":"1\/3\/0914:44","Product":"Product1","Price":"1200","Payment_Type":"Visa","Name":"Gouya","City":"Echuca","State":"Victoria","Country":"Australia","Account_Created":"9\/25\/0521:13","Last_Login":"1\/3\/0914:22","Latitude":"-36.1333333","Longitude":"144.75","id":3},{"Transaction_date":"1\/4\/0912:56","Product":"Product2","Price":"3600","Payment_Type":"Visa","Name":"GerdW","City":"CahabaHeights","State":"AL","Country":"UnitedStates","Account_Created":"11\/15\/0815:47","Last_Login":"1\/4\/0912:45","Latitude":"33.52056","Longitude":"-86.8025","id":4},{"Transaction_date":"1\/4\/0913:19","Product":"Product1","Price":"1200","Payment_Type":"Visa","Name":"LAURENCE","City":"Mickleton","State":"NJ","Country":"UnitedStates","Account_Created":"9\/24\/0815:19","Last_Login":"1\/4\/0913:04","Latitude":"39.79","Longitude":"-75.23806","id":5},{"Transaction_date":"1\/4\/0920:11","Product":"Product1","Price":"1200","Payment_Type":"Mastercard","Name":"Fleur","City":"Peoria","State":"IL","Country":"UnitedStates","Account_Created":"1\/3\/099:38","Last_Login":"1\/4\/0919:45","Latitude":"40.69361","Longitude":"-89.58889","id":6},{"Transaction_date":"1\/2\/0920:09","Product":"Product1","Price":"1200","Payment_Type":"Mastercard","Name":"adam","City":"Martin","State":"TN","Country":"UnitedStates","Account_Created":"1\/2\/0917:43","Last_Login":"1\/4\/0920:01","Latitude":"36.34333","Longitude":"-88.85028","id":7},{"Transaction_date":"1\/4\/0913:17","Product":"Product1","Price":"1200","Payment_Type":"Mastercard","Name":"ReneeElisabeth","City":"TelAviv","State":"TelAviv","Country":"Israel","Account_Created":"1\/4\/0913:03","Last_Login":"1\/4\/0922:10","Latitude":"32.0666667","Longitude":"34.7666667","id":8},{"Transaction_date":"1\/4\/0914:11","Product":"Product1","Price":"1200","Payment_Type":"Visa","Name":"Aidan","City":"Chatou","State":"Ile-de-France","Country":"France","Account_Created":"6\/3\/084:22","Last_Login":"1\/5\/091:17","Latitude":"48.8833333","Longitude":"2.15","id":9},{"Transaction_date":"1\/5\/092:42","Product":"Product1","Price":"1200","Payment_Type":"Diners","Name":"Stacy","City":"NewYork","State":"NY","Country":"UnitedStates","Account_Created":"1\/5\/092:23","Last_Login":"1\/5\/094:59","Latitude":"40.71417","Longitude":"-74.00639","id":10},{"Transaction_date":"1\/5\/095:39","Product":"Product1","Price":"1200","Payment_Type":"Amex","Name":"Heidi","City":"Eindhoven","State":"Noord-Brabant","Country":"Netherlands","Account_Created":"1\/5\/094:55","Last_Login":"1\/5\/098:15","Latitude":"51.45","Longitude":"5.4666667","id":11},{"Transaction_date":"1\/2\/099:16","Product":"Product1","Price":"1200","Payment_Type":"Mastercard","Name":"Sean","City":"ShavanoPark","State":"TX","Country":"UnitedStates","Account_Created":"1\/2\/098:32","Last_Login":"1\/5\/099:05","Latitude":"29.42389","Longitude":"-98.49333","id":12},{"Transaction_date":"1\/5\/0910:08","Product":"Product1","Price":"1200","Payment_Type":"Visa","Name":"Georgia","City":"Eagle","State":"ID","Country":"UnitedStates","Account_Created":"11\/11\/0815:53","Last_Login":"1\/5\/0910:05","Latitude":"43.69556","Longitude":"-116.35306","id":13},{"Transaction_date":"1\/2\/0914:18","Product":"Product1","Price":"1200","Payment_Type":"Visa","Name":"Richard","City":"Riverside","State":"NJ","Country":"UnitedStates","Account_Created":"12\/9\/0812:07","Last_Login":"1\/5\/0911:01","Latitude":"40.03222","Longitude":"-74.95778","id":14},{"Transaction_date":"1\/4\/091:05","Product":"Product1","Price":"1200","Payment_Type":"Diners","Name":"Leanne","City":"Julianstown","State":"Meath","Country":"Ireland","Account_Created":"1\/4\/090:00","Last_Login":"1\/5\/0913:36","Latitude":"53.6772222","Longitude":"-6.3191667","id":15},{"Transaction_date":"1\/5\/0911:37","Product":"Product1","Price":"1200","Payment_Type":"Visa","Name":"Janet","City":"Ottawa","State":"Ontario","Country":"Canada","Account_Created":"1\/5\/099:35","Last_Login":"1\/5\/0919:24","Latitude":"45.4166667","Longitude":"-75.7","id":16},{"Transaction_date":"1\/6\/095:02","Product":"Product1","Price":"1200","Payment_Type":"Diners","Name":"barbara","City":"Hyderabad","State":"AndhraPradesh","Country":"India","Account_Created":"1\/6\/092:41","Last_Login":"1\/6\/097:52","Latitude":"17.3833333","Longitude":"78.4666667","id":17},{"Transaction_date":"1\/6\/097:45","Product":"Product2","Price":"3600","Payment_Type":"Visa","Name":"Sabine","City":"London","State":"England","Country":"UnitedKingdom","Account_Created":"1\/6\/097:00","Last_Login":"1\/6\/099:17","Latitude":"51.52721","Longitude":"0.14559","id":18},{"Transaction_date":"1\/2\/097:35","Product":"Product1","Price":"1200","Payment_Type":"Diners","Name":"Hani","City":"SaltLakeCity","State":"UT","Country":"UnitedStates","Account_Created":"12\/30\/085:44","Last_Login":"1\/6\/0910:52","Latitude":"40.76083","Longitude":"-111.89028","id":19},{"Transaction_date":"1\/6\/0912:56","Product":"Product1","Price":"1200","Payment_Type":"Visa","Name":"Jeremy","City":"Manchester","State":"England","Country":"UnitedKingdom","Account_Created":"1\/6\/0910:58","Last_Login":"1\/6\/0913:31","Latitude":"53.5","Longitude":"-2.2166667","id":20},{"Transaction_date":"1\/1\/0911:05","Product":"Product1","Price":"1200","Payment_Type":"Diners","Name":"Janis","City":"Ballynora","State":"Cork","Country":"Ireland","Account_Created":"12\/10\/0712:37","Last_Login":"1\/7\/091:52","Latitude":"51.8630556","Longitude":"-8.58","id":21},{"Transaction_date":"1\/5\/094:10","Product":"Product1","Price":"1200","Payment_Type":"Mastercard","Name":"Nicola","City":"Roodepoort","State":"Gauteng","Country":"SouthAfrica","Account_Created":"1\/5\/092:33","Last_Login":"1\/7\/095:13","Latitude":"-26.1666667","Longitude":"27.8666667","id":22},{"Transaction_date":"1\/6\/097:18","Product":"Product1","Price":"1200","Payment_Type":"Visa","Name":"asuman","City":"ChulaVista","State":"CA","Country":"UnitedStates","Account_Created":"1\/6\/097:07","Last_Login":"1\/7\/097:08","Latitude":"32.64","Longitude":"-117.08333","id":23},{"Transaction_date":"1\/2\/091:11","Product":"Product1","Price":"1200","Payment_Type":"Mastercard","Name":"Lena","City":"Kuopio","State":"Ita-SuomenLaani","Country":"Finland","Account_Created":"12\/31\/082:48","Last_Login":"1\/7\/0910:20","Latitude":"62.9","Longitude":"27.6833333","id":24},{"Transaction_date":"1\/1\/092:24","Product":"Product1","Price":"1200","Payment_Type":"Visa","Name":"Lisa","City":"SugarLand","State":"TX","Country":"UnitedStates","Account_Created":"1\/1\/091:56","Last_Login":"1\/7\/0910:52","Latitude":"29.61944","Longitude":"-95.63472","id":25},{"Transaction_date":"1\/7\/098:08","Product":"Product1","Price":"1200","Payment_Type":"Diners","Name":"BryanKerrene","City":"NewYork","State":"NY","Country":"UnitedStates","Account_Created":"1\/7\/097:39","Last_Login":"1\/7\/0912:38","Latitude":"40.71417","Longitude":"-74.00639","id":26},{"Transaction_date":"1\/2\/092:57","Product":"Product1","Price":"1200","Payment_Type":"Visa","Name":"chris","City":"London","State":"England","Country":"UnitedKingdom","Account_Created":"1\/3\/087:23","Last_Login":"1\/7\/0913:14","Latitude":"51.52721","Longitude":"0.14559","id":27},{"Transaction_date":"1\/1\/0920:21","Product":"Product1","Price":"1200","Payment_Type":"Visa","Name":"Maxine","City":"Morton","State":"IL","Country":"UnitedStates","Account_Created":"10\/24\/086:48","Last_Login":"1\/7\/0920:49","Latitude":"40.61278","Longitude":"-89.45917","id":28},{"Transaction_date":"1\/8\/090:42","Product":"Product1","Price":"1200","Payment_Type":"Visa","Name":"Family","City":"LosGatos","State":"CA","Country":"UnitedStates","Account_Created":"1\/8\/090:28","Last_Login":"1\/8\/093:39","Latitude":"37.22667","Longitude":"-121.97361","id":29},{"Transaction_date":"1\/8\/093:56","Product":"Product1","Price":"1200","Payment_Type":"Mastercard","Name":"Katherine","City":"NewYork","State":"NY","Country":"UnitedStates","Account_Created":"1\/8\/093:33","Last_Login":"1\/8\/096:19","Latitude":"40.71417","Longitude":"-74.00639","id":30},{"Transaction_date":"1\/8\/093:16","Product":"Product1","Price":"1200","Payment_Type":"Mastercard","Name":"Linda","City":"Miami","State":"FL","Country":"UnitedStates","Account_Created":"1\/8\/093:06","Last_Login":"1\/8\/096:34","Latitude":"25.77389","Longitude":"-80.19389","id":31},{"Transaction_date":"1\/8\/091:59","Product":"Product1","Price":"1200","Payment_Type":"Mastercard","Name":"SYLVIA","City":"Vesenaz","State":"Geneve","Country":"Switzerland","Account_Created":"11\/28\/0711:56","Last_Login":"1\/8\/097:20","Latitude":"46.2333333","Longitude":"6.2","id":32},{"Transaction_date":"1\/3\/099:03","Product":"Product1","Price":"1200","Payment_Type":"Diners","Name":"Sheila","City":"Brooklyn","State":"NY","Country":"UnitedStates","Account_Created":"1\/3\/098:47","Last_Login":"1\/8\/0910:38","Latitude":"40.65","Longitude":"-73.95","id":33},{"Transaction_date":"1\/5\/0913:17","Product":"Product1","Price":"1200","Payment_Type":"Mastercard","Name":"Stephanie","City":"Badhoevedorp","State":"Noord-Holland","Country":"Netherlands","Account_Created":"1\/5\/0912:45","Last_Login":"1\/8\/0911:45","Latitude":"52.3333333","Longitude":"4.7833333","id":34},{"Transaction_date":"1\/6\/097:46","Product":"Product1","Price":"1200","Payment_Type":"Amex","Name":"Kelly","City":"Reston","State":"VA","Country":"UnitedStates","Account_Created":"1\/6\/097:30","Last_Login":"1\/8\/0912:40","Latitude":"38.96861","Longitude":"-77.34139","id":35},{"Transaction_date":"1\/5\/0920:00","Product":"Product2","Price":"3600","Payment_Type":"Visa","Name":"James","City":"Burpengary","State":"Queensland","Country":"Australia","Account_Created":"12\/10\/0819:53","Last_Login":"1\/8\/0917:58","Latitude":"-27.1666667","Longitude":"152.95","id":36},{"Transaction_date":"1\/8\/0916:24","Product":"Product1","Price":"1200","Payment_Type":"Visa","Name":"jennifer","City":"Phoenix","State":"AZ","Country":"UnitedStates","Account_Created":"1\/8\/0915:57","Last_Login":"1\/8\/0918:30","Latitude":"33.44833","Longitude":"-112.07333","id":37},{"Transaction_date":"1\/9\/096:39","Product":"Product1","Price":"1200","Payment_Type":"Mastercard","Name":"Anneli","City":"Houston","State":"TX","Country":"UnitedStates","Account_Created":"1\/9\/095:09","Last_Login":"1\/9\/097:11","Latitude":"29.76306","Longitude":"-95.36306","id":38},{"Transaction_date":"1\/6\/0922:19","Product":"Product2","Price":"3600","Payment_Type":"Amex","Name":"Ritz","City":"Pittsfield","State":"VT","Country":"UnitedStates","Account_Created":"1\/6\/0912:00","Last_Login":"1\/9\/0910:05","Latitude":"43.77222","Longitude":"-72.81333","id":39},{"Transaction_date":"1\/6\/0923:00","Product":"Product2","Price":"3600","Payment_Type":"Amex","Name":"Sylvia","City":"Pittsfield","State":"VT","Country":"UnitedStates","Account_Created":"1\/6\/0912:00","Last_Login":"1\/9\/0910:05","Latitude":"43.77222","Longitude":"-72.81333","id":40},{"Transaction_date":"1\/7\/097:44","Product":"Product1","Price":"1200","Payment_Type":"Mastercard","Name":"Marie","City":"BallGround","State":"GA","Country":"UnitedStates","Account_Created":"1\/7\/095:35","Last_Login":"1\/9\/0910:52","Latitude":"34.33806","Longitude":"-84.37667","id":41},{"Transaction_date":"1\/3\/0913:24","Product":"Product1","Price":"1200","Payment_Type":"Visa","Name":"MehmetFatih","City":"Helsingor","State":"Frederiksborg","Country":"Denmark","Account_Created":"1\/3\/0912:47","Last_Login":"1\/9\/0911:14","Latitude":"56.0333333","Longitude":"12.6166667","id":42},{"Transaction_date":"1\/7\/0915:12","Product":"Product2","Price":"3600","Payment_Type":"Visa","Name":"Anabela","City":"Flossmoor","State":"IL","Country":"UnitedStates","Account_Created":"1\/5\/0919:55","Last_Login":"1\/9\/0916:03","Latitude":"41.54278","Longitude":"-87.68472","id":43},{"Transaction_date":"1\/7\/0920:15","Product":"Product1","Price":"1200","Payment_Type":"Amex","Name":"Nicole","City":"Houston","State":"TX","Country":"UnitedStates","Account_Created":"1\/7\/0917:17","Last_Login":"1\/9\/0920:02","Latitude":"29.76306","Longitude":"-95.36306","id":44},{"Transaction_date":"1\/3\/0910:11","Product":"Product2","Price":"3600","Payment_Type":"Visa","Name":"Christiane","City":"DelrayBeach","State":"FL","Country":"UnitedStates","Account_Created":"1\/3\/099:27","Last_Login":"1\/10\/099:46","Latitude":"26.46111","Longitude":"-80.07306","id":45},{"Transaction_date":"1\/9\/0915:58","Product":"Product1","Price":"1200","Payment_Type":"Mastercard","Name":"Sari","City":"Newbury","State":"England","Country":"UnitedKingdom","Account_Created":"1\/9\/0914:53","Last_Login":"1\/10\/0913:16","Latitude":"51.4","Longitude":"-1.3166667","id":46},{"Transaction_date":"1\/3\/0913:11","Product":"Product1","Price":"1200","Payment_Type":"Mastercard","Name":"simone","City":"Kobenhavn","State":"Kobenhavn","Country":"Denmark","Account_Created":"10\/31\/080:31","Last_Login":"1\/10\/0913:24","Latitude":"55.6666667","Longitude":"12.5833333","id":47},{"Transaction_date":"1\/10\/0912:57","Product":"Product1","Price":"1200","Payment_Type":"Amex","Name":"Vanessa","City":"SandySprings","State":"GA","Country":"UnitedStates","Account_Created":"2\/7\/0720:16","Last_Login":"1\/10\/0914:09","Latitude":"33.92417","Longitude":"-84.37861","id":48},{"Transaction_date":"1\/10\/0914:43","Product":"Product1","Price":"1200","Payment_Type":"Diners","Name":"Anupam","City":"Kinsaley","State":"Dublin","Country":"Ireland","Account_Created":"1\/9\/0911:38","Last_Login":"1\/10\/0914:37","Latitude":"53.4247222","Longitude":"-6.1758333","id":49},{"Transaction_date":"1\/10\/0912:05","Product":"Product1","Price":"1200","Payment_Type":"Visa","Name":"Karina","City":"FortLauderdale","State":"FL","Country":"UnitedStates","Account_Created":"7\/1\/0812:53","Last_Login":"1\/10\/0916:33","Latitude":"26.12194","Longitude":"-80.14361","id":50},{"Transaction_date":"1\/6\/091:20","Product":"Product1","Price":"1200","Payment_Type":"Mastercard","Name":"Frank","City":"Melbourne","State":"Victoria","Country":"Australia","Account_Created":"1\/2\/0917:51","Last_Login":"1\/10\/0918:27","Latitude":"-37.8166667","Longitude":"144.9666667","id":51},{"Transaction_date":"1\/10\/0914:56","Product":"Product1","Price":"1200","Payment_Type":"Visa","Name":"Angela","City":"Ankeny","State":"IA","Country":"UnitedStates","Account_Created":"1\/8\/093:06","Last_Login":"1\/10\/0919:41","Latitude":"41.72972","Longitude":"-93.60556","id":52},{"Transaction_date":"1\/7\/0910:01","Product":"Product1","Price":"1200","Payment_Type":"Visa","Name":"Darren","City":"Pittsboro","State":"NC","Country":"UnitedStates","Account_Created":"1\/7\/099:04","Last_Login":"1\/10\/0920:02","Latitude":"35.72","Longitude":"-79.1775","id":53},{"Transaction_date":"1\/1\/091:26","Product":"Product1","Price":"1200","Payment_Type":"Mastercard","Name":"Nikki","City":"NewRochelle","State":"NY","Country":"UnitedStates","Account_Created":"1\/1\/090:58","Last_Login":"1\/10\/0921:31","Latitude":"40.91139","Longitude":"-73.78278","id":54},{"Transaction_date":"1\/11\/092:04","Product":"Product1","Price":"1200","Payment_Type":"Visa","Name":"chris","City":"GoldCoast","State":"Queensland","Country":"Australia","Account_Created":"1\/11\/090:33","Last_Login":"1\/11\/092:11","Latitude":"-28","Longitude":"153.4333333","id":55},{"Transaction_date":"1\/11\/0914:17","Product":"Product1","Price":"1200","Payment_Type":"Visa","Name":"Stephanie","City":"Brussels","State":"Brussels(Bruxelles)","Country":"Belgium","Account_Created":"1\/11\/0913:39","Last_Login":"1\/11\/0913:39","Latitude":"50.8333333","Longitude":"4.3333333","id":56},{"Transaction_date":"1\/10\/0921:38","Product":"Product1","Price":"1200","Payment_Type":"Visa","Name":"Anushka","City":"MapleRidgeDistrictMunicipality","State":"BritishColumbia","Country":"Canada","Account_Created":"1\/10\/0921:17","Last_Login":"1\/11\/0919:32","Latitude":"49.25","Longitude":"-122.5","id":57},{"Transaction_date":"1\/7\/096:18","Product":"Product1","Price":"1200","Payment_Type":"Mastercard","Name":"June","City":"Beachwood","State":"OH","Country":"UnitedStates","Account_Created":"2\/23\/0611:56","Last_Login":"1\/11\/0919:35","Latitude":"41.46444","Longitude":"-81.50889","id":58},{"Transaction_date":"1\/4\/098:39","Product":"Product2","Price":"3600","Payment_Type":"Diners","Name":"Baybars","City":"PrinceAlbert","State":"Saskatchewan","Country":"Canada","Account_Created":"1\/3\/0917:17","Last_Login":"1\/11\/0921:05","Latitude":"53.2","Longitude":"-105.75","id":59},{"Transaction_date":"1\/5\/090:31","Product":"Product1","Price":"1200","Payment_Type":"Mastercard","Name":"Bonnie","City":"Saltsjobaden","State":"Stockholm","Country":"Sweden","Account_Created":"1\/4\/0923:45","Last_Login":"1\/12\/090:37","Latitude":"59.2833333","Longitude":"18.3","id":60},{"Transaction_date":"1\/2\/096:07","Product":"Product1","Price":"1200","Payment_Type":"Visa","Name":"Cindy","City":"Kemble","State":"England","Country":"UnitedKingdom","Account_Created":"12\/30\/0810:21","Last_Login":"1\/12\/092:24","Latitude":"51.6766667","Longitude":"-2.0180556","id":61},{"Transaction_date":"1\/12\/093:25","Product":"Product1","Price":"1200","Payment_Type":"Mastercard","Name":"chrissy","City":"WLebanon","State":"NH","Country":"UnitedStates","Account_Created":"1\/12\/093:12","Last_Login":"1\/12\/093:22","Latitude":"43.64917","Longitude":"-72.31083","id":62},{"Transaction_date":"1\/4\/0913:56","Product":"Product1","Price":"1200","Payment_Type":"Mastercard","Name":"Tamar","City":"Headley","State":"England","Country":"UnitedKingdom","Account_Created":"11\/29\/079:23","Last_Login":"1\/12\/095:38","Latitude":"51.1166667","Longitude":"-0.8166667","id":63},{"Transaction_date":"1\/7\/090:12","Product":"Product2","Price":"3600","Payment_Type":"Mastercard","Name":"Deirdre","City":"Lausanne","State":"Vaud","Country":"Switzerland","Account_Created":"12\/1\/086:25","Last_Login":"1\/12\/096:55","Latitude":"46.5333333","Longitude":"6.6666667","id":64},{"Transaction_date":"1\/12\/095:18","Product":"Product1","Price":"1200","Payment_Type":"Mastercard","Name":"Bernadett","City":"Southampton","State":"England","Country":"UnitedKingdom","Account_Created":"1\/12\/094:45","Last_Login":"1\/12\/098:08","Latitude":"50.9","Longitude":"-1.4","id":65},{"Transaction_date":"1\/8\/0915:16","Product":"Product1","Price":"1200","Payment_Type":"Visa","Name":"Dottie","City":"Woodsboro","State":"MD","Country":"UnitedStates","Account_Created":"1\/8\/0914:56","Last_Login":"1\/12\/099:29","Latitude":"39.53306","Longitude":"-77.315","id":66},{"Transaction_date":"1\/11\/0911:33","Product":"Product1","Price":"1200","Payment_Type":"Visa","Name":"Stefan","City":"Stavanger","State":"Rogaland","Country":"Norway","Account_Created":"1\/11\/099:02","Last_Login":"1\/12\/0910:37","Latitude":"58.9666667","Longitude":"5.75","id":67},{"Transaction_date":"1\/7\/0920:22","Product":"Product1","Price":"1200","Payment_Type":"Visa","Name":"Gina","City":"RedDeer","State":"Alberta","Country":"Canada","Account_Created":"11\/23\/0819:30","Last_Login":"1\/12\/0912:24","Latitude":"52.2666667","Longitude":"-113.8","id":68},{"Transaction_date":"1\/2\/0922:00","Product":"Product1","Price":"1200","Payment_Type":"Diners","Name":"Lynne","City":"Memphis","State":"TN","Country":"UnitedStates","Account_Created":"1\/2\/0921:04","Last_Login":"1\/12\/0913:18","Latitude":"35.14944","Longitude":"-90.04889","id":69},{"Transaction_date":"1\/5\/0913:52","Product":"Product1","Price":"1200","Payment_Type":"Mastercard","Name":"Tammy","City":"Morges","State":"Vaud","Country":"Switzerland","Account_Created":"1\/5\/095:55","Last_Login":"1\/12\/0914:04","Latitude":"46.5166667","Longitude":"6.5","id":70},{"Transaction_date":"1\/8\/0920:32","Product":"Product1","Price":"1200","Payment_Type":"Visa","Name":"Kim","City":"Calgary","State":"Alberta","Country":"Canada","Account_Created":"1\/8\/0920:21","Last_Login":"1\/12\/0914:07","Latitude":"51.0833333","Longitude":"-114.0833333","id":71},{"Transaction_date":"1\/8\/0913:34","Product":"Product1","Price":"1200","Payment_Type":"Visa","Name":"Bruce","City":"Belleville","State":"Ontario","Country":"Canada","Account_Created":"1\/6\/0914:38","Last_Login":"1\/12\/0918:31","Latitude":"44.1666667","Longitude":"-77.3833333","id":72},{"Transaction_date":"1\/11\/0913:08","Product":"Product1","Price":"1200","Payment_Type":"Visa","Name":"RosaMaria","City":"Cincinnati","State":"OH","Country":"UnitedStates","Account_Created":"1\/11\/0912:38","Last_Login":"1\/12\/0918:44","Latitude":"39.16194","Longitude":"-84.45694","id":73},{"Transaction_date":"1\/12\/0919:04","Product":"Product1","Price":"1200","Payment_Type":"Visa","Name":"Lydia","City":"Comox","State":"BritishColumbia","Country":"Canada","Account_Created":"9\/20\/0820:53","Last_Login":"1\/12\/0919:01","Latitude":"49.6833333","Longitude":"-124.9333333","id":74},{"Transaction_date":"1\/12\/0913:41","Product":"Product1","Price":"1200","Payment_Type":"Visa","Name":"Eric","City":"Gasperich","State":"Luxembourg","Country":"Luxembourg","Account_Created":"1\/12\/0913:16","Last_Login":"1\/13\/091:03","Latitude":"49.5855556","Longitude":"6.1230556","id":75},{"Transaction_date":"1\/11\/0910:38","Product":"Product1","Price":"1200","Payment_Type":"Mastercard","Name":"AnaPaula","City":"HelensBay","State":"NorthernIreland","Country":"UnitedKingdom","Account_Created":"9\/4\/089:26","Last_Login":"1\/13\/092:36","Latitude":"54.65","Longitude":"-5.7333333","id":76},{"Transaction_date":"1\/13\/095:57","Product":"Product1","Price":"1200","Payment_Type":"Visa","Name":"Robin","City":"Milan","State":"Lombardy","Country":"Italy","Account_Created":"10\/15\/085:31","Last_Login":"1\/13\/095:55","Latitude":"45.4666667","Longitude":"9.2","id":77},{"Transaction_date":"1\/13\/096:13","Product":"Product1","Price":"1200","Payment_Type":"Visa","Name":"Gitte","City":"StatenIsland","State":"NY","Country":"UnitedStates","Account_Created":"1\/13\/095:17","Last_Login":"1\/13\/097:33","Latitude":"40.63667","Longitude":"-74.15917","id":78},{"Transaction_date":"1\/8\/0913:14","Product":"Product1","Price":"1200","Payment_Type":"Visa","Name":"Dr.Claudia","City":"Oslo","State":"Oslo","Country":"Norway","Account_Created":"1\/8\/0912:47","Last_Login":"1\/13\/0910:49","Latitude":"59.9166667","Longitude":"10.75","id":79},{"Transaction_date":"1\/2\/0911:41","Product":"Product1","Price":"1200","Payment_Type":"Visa","Name":"Crystal","City":"Farmington","State":"Michigan","Country":"UnitedStates","Account_Created":"1\/1\/0912:00","Last_Login":"1\/13\/0918:34","Latitude":"42.46444","Longitude":"-83.37639","id":80},{"Transaction_date":"1\/7\/0919:50","Product":"Product1","Price":"1200","Payment_Type":"Diners","Name":"Delphine","City":"SantaMonica","State":"CA","Country":"UnitedStates","Account_Created":"1\/3\/0912:04","Last_Login":"1\/13\/0920:17","Latitude":"34.01944","Longitude":"-118.49028","id":81},{"Transaction_date":"1\/1\/0920:28","Product":"Product1","Price":"1200","Payment_Type":"Visa","Name":"nathalie","City":"Calgary","State":"Alberta","Country":"Canada","Account_Created":"1\/1\/0920:11","Last_Login":"1\/13\/0921:11","Latitude":"51.0833333","Longitude":"-114.0833333","id":82},{"Transaction_date":"1\/3\/0915:22","Product":"Product1","Price":"1200","Payment_Type":"Mastercard","Name":"Lindi","City":"Vancouver","State":"BritishColumbia","Country":"Canada","Account_Created":"2\/20\/0822:45","Last_Login":"1\/13\/0923:02","Latitude":"49.25","Longitude":"-123.1333333","id":83},{"Transaction_date":"1\/12\/093:03","Product":"Product2","Price":"3600","Payment_Type":"Mastercard","Name":"Valda","City":"Irvine","State":"CA","Country":"UnitedStates","Account_Created":"1\/12\/092:48","Last_Login":"1\/14\/091:07","Latitude":"33.66944","Longitude":"-117.82222","id":84},{"Transaction_date":"1\/5\/098:58","Product":"Product2","Price":"3600","Payment_Type":"Mastercard","Name":"Marcia","City":"Telgte","State":"Nordrhein-Westfalen","Country":"Germany","Account_Created":"9\/1\/083:39","Last_Login":"1\/14\/092:07","Latitude":"52.3333333","Longitude":"7.9","id":85},{"Transaction_date":"1\/10\/0914:03","Product":"Product1","Price":"1200","Payment_Type":"Mastercard","Name":"Kevin","City":"Cheltenham","State":"England","Country":"UnitedKingdom","Account_Created":"3\/13\/064:56","Last_Login":"1\/14\/092:22","Latitude":"51.9","Longitude":"-2.0833333","id":86},{"Transaction_date":"1\/13\/0911:26","Product":"Product1","Price":"1200","Payment_Type":"Visa","Name":"Clare","City":"Keller","State":"VA","Country":"UnitedStates","Account_Created":"1\/13\/0911:15","Last_Login":"1\/14\/092:39","Latitude":"37.61917","Longitude":"-75.76417","id":87},{"Transaction_date":"1\/2\/0912:18","Product":"Product1","Price":"1200","Payment_Type":"Visa","Name":"Alice","City":"Nakskov","State":"Storstrom","Country":"Denmark","Account_Created":"12\/5\/0711:37","Last_Login":"1\/14\/094:05","Latitude":"54.8333333","Longitude":"11.15","id":88},{"Transaction_date":"1\/14\/094:54","Product":"Product1","Price":"1200","Payment_Type":"Mastercard","Name":"ZENA","City":"Honolulu","State":"HI","Country":"UnitedStates","Account_Created":"1\/14\/094:34","Last_Login":"1\/14\/094:43","Latitude":"21.30694","Longitude":"-157.85833","id":89},{"Transaction_date":"1\/6\/0917:15","Product":"Product1","Price":"1200","Payment_Type":"Visa","Name":"Andrea","City":"Bubuieci","State":"Chisinau","Country":"Moldova","Account_Created":"12\/24\/0817:31","Last_Login":"1\/14\/0910:27","Latitude":"46.985","Longitude":"28.9425","id":90},{"Transaction_date":"1\/3\/0913:56","Product":"Product1","Price":"1200","Payment_Type":"Visa","Name":"Rennae","City":"AmeliaIsland","State":"FL","Country":"UnitedStates","Account_Created":"1\/3\/0912:30","Last_Login":"1\/14\/0913:03","Latitude":"30.66944","Longitude":"-81.46278","id":91},{"Transaction_date":"1\/4\/097:54","Product":"Product1","Price":"1200","Payment_Type":"Visa","Name":"Gerhard","City":"Alliston","State":"Ontario","Country":"Canada","Account_Created":"10\/21\/0521:49","Last_Login":"1\/14\/0913:06","Latitude":"44.15","Longitude":"-79.8666667","id":92},{"Transaction_date":"1\/12\/097:28","Product":"Product1","Price":"1200","Payment_Type":"Amex","Name":"Megan","City":"LaAlberca","State":"Murcia","Country":"Spain","Account_Created":"12\/10\/0816:41","Last_Login":"1\/14\/0913:44","Latitude":"37.9333333","Longitude":"-1.1333333","id":93},{"Transaction_date":"1\/6\/0915:15","Product":"Product1","Price":"1200","Payment_Type":"Mastercard","Name":"Danielle","City":"Rathgar","State":"Dublin","Country":"Ireland","Account_Created":"1\/6\/0914:59","Last_Login":"1\/14\/0914:33","Latitude":"53.3122222","Longitude":"-6.2683333","id":94},{"Transaction_date":"1\/13\/0923:56","Product":"Product1","Price":"1200","Payment_Type":"Mastercard","Name":"Tod","City":"CoralGables","State":"FL","Country":"UnitedStates","Account_Created":"1\/13\/0923:13","Last_Login":"1\/14\/0915:17","Latitude":"25.72111","Longitude":"-80.26861","id":95},{"Transaction_date":"1\/14\/0919:32","Product":"Product1","Price":"1200","Payment_Type":"Visa","Name":"Janaina","City":"Miami","State":"FL","Country":"UnitedStates","Account_Created":"12\/16\/0822:19","Last_Login":"1\/14\/0919:28","Latitude":"25.77389","Longitude":"-80.19389","id":96},{"Transaction_date":"1\/6\/0921:13","Product":"Product1","Price":"1200","Payment_Type":"Visa","Name":"Kofi","City":"Vancouver","State":"BritishColumbia","Country":"Canada","Account_Created":"1\/7\/0821:16","Last_Login":"1\/14\/0920:50","Latitude":"49.25","Longitude":"-123.1333333","id":97},{"Transaction_date":"1\/14\/0911:19","Product":"Product1","Price":"1200","Payment_Type":"Visa","Name":"Jennifer","City":"Jumeira","State":"Dubayy","Country":"UnitedArabEmirates","Account_Created":"1\/14\/0910:44","Last_Login":"1\/14\/0921:26","Latitude":"25.2097222","Longitude":"55.2477778","id":98},{"Transaction_date":"1\/13\/0919:39","Product":"Product1","Price":"1200","Payment_Type":"Visa","Name":"Jolene","City":"Englewood","State":"CO","Country":"UnitedStates","Account_Created":"1\/6\/0922:00","Last_Login":"1\/14\/0922:02","Latitude":"39.64778","Longitude":"-104.98722","id":99},{"Transaction_date":"1\/8\/097:26","Product":"Product1","Price":"1200","Payment_Type":"Mastercard","Name":"anne","City":"Bournemouth","State":"England","Country":"UnitedKingdom","Account_Created":"1\/25\/0815:46","Last_Login":"1\/15\/091:36","Latitude":"50.7166667","Longitude":"-1.8833333","id":100},{"Transaction_date":"1\/15\/092:40","Product":"Product1","Price":"1200","Payment_Type":"Mastercard","Name":"Alexis","City":"Genoa","State":"IL","Country":"UnitedStates","Account_Created":"1\/15\/092:04","Last_Login":"1\/15\/092:04","Latitude":"42.09722","Longitude":"-88.69278","id":101},{"Transaction_date":"1\/12\/096:40","Product":"Product1","Price":"1200","Payment_Type":"Visa","Name":"Dez","City":"Al'Adliyah","State":"AlManamah","Country":"Bahrain","Account_Created":"1\/10\/0912:50","Last_Login":"1\/15\/094:46","Latitude":"26.2172222","Longitude":"50.5405556","id":102},{"Transaction_date":"1\/15\/093:43","Product":"Product1","Price":"1200","Payment_Type":"Visa","Name":"Stephanie","City":"Rouen","State":"UpperNormandy","Country":"France","Account_Created":"12\/26\/089:01","Last_Login":"1\/15\/095:39","Latitude":"49.4333333","Longitude":"1.0833333","id":103},{"Transaction_date":"1\/5\/0915:39","Product":"Product1","Price":"1200","Payment_Type":"Visa","Name":"Melissa","City":"Parkland","State":"FL","Country":"UnitedStates","Account_Created":"12\/10\/089:14","Last_Login":"1\/15\/096:01","Latitude":"26.30972","Longitude":"-80.2375","id":104},{"Transaction_date":"1\/10\/095:21","Product":"Product1","Price":"1200","Payment_Type":"Amex","Name":"CLARE","City":"SanFrancisco","State":"CA","Country":"UnitedStates","Account_Created":"1\/10\/090:07","Last_Login":"1\/15\/096:25","Latitude":"37.775","Longitude":"-122.41833","id":105},{"Transaction_date":"1\/15\/094:12","Product":"Product1","Price":"1200","Payment_Type":"Mastercard","Name":"catherine","City":"Keller","State":"VA","Country":"UnitedStates","Account_Created":"1\/15\/094:02","Last_Login":"1\/15\/096:59","Latitude":"37.61917","Longitude":"-75.76417","id":106},{"Transaction_date":"1\/12\/0911:48","Product":"Product1","Price":"1200","Payment_Type":"Visa","Name":"Veronique","City":"Tsawwassen","State":"BritishColumbia","Country":"Canada","Account_Created":"7\/24\/0815:48","Last_Login":"1\/15\/098:56","Latitude":"49.0166667","Longitude":"-123.0833333","id":107},{"Transaction_date":"1\/6\/0910:48","Product":"Product1","Price":"1200","Payment_Type":"Mastercard","Name":"BruceandCamille","City":"Clinton","State":"NJ","Country":"UnitedStates","Account_Created":"8\/21\/0721:19","Last_Login":"1\/15\/099:32","Latitude":"40.63667","Longitude":"-74.91028","id":108},{"Transaction_date":"1\/14\/099:10","Product":"Product1","Price":"1200","Payment_Type":"Mastercard","Name":"Ellen","City":"Owensboro","State":"KY","Country":"UnitedStates","Account_Created":"1\/14\/098:25","Last_Login":"1\/15\/099:40","Latitude":"37.77417","Longitude":"-87.11333","id":109},{"Transaction_date":"1\/14\/0922:44","Product":"Product1","Price":"1200","Payment_Type":"Visa","Name":"Amy","City":"LakewoodVillage","State":"TX","Country":"UnitedStates","Account_Created":"1\/14\/0922:21","Last_Login":"1\/15\/099:50","Latitude":"33.1425","Longitude":"-96.96917","id":110},{"Transaction_date":"1\/6\/097:23","Product":"Product1","Price":"1200","Payment_Type":"Visa","Name":"Anna","City":"Okotoks","State":"Alberta","Country":"Canada","Account_Created":"7\/21\/0812:03","Last_Login":"1\/15\/0910:00","Latitude":"50.7166667","Longitude":"-113.9666667","id":111},{"Transaction_date":"1\/1\/095:04","Product":"Product1","Price":"1200","Payment_Type":"Mastercard","Name":"Regina","City":"Glimmen","State":"Groningen","Country":"Netherlands","Account_Created":"12\/16\/024:09","Last_Login":"1\/15\/0910:50","Latitude":"53.1333333","Longitude":"6.6333333","id":112},{"Transaction_date":"1\/15\/0911:56","Product":"Product1","Price":"1200","Payment_Type":"Visa","Name":"Heidi","City":"Calgary","State":"Alberta","Country":"Canada","Account_Created":"1\/14\/099:16","Last_Login":"1\/15\/0911:39","Latitude":"51.0833333","Longitude":"-114.0833333","id":113},{"Transaction_date":"1\/15\/0911:58","Product":"Product1","Price":"1200","Payment_Type":"Visa","Name":"Jessica","City":"Kanata","State":"Ontario","Country":"Canada","Account_Created":"1\/14\/095:59","Last_Login":"1\/15\/0911:49","Latitude":"45.3333333","Longitude":"-75.9","id":114},{"Transaction_date":"1\/12\/099:43","Product":"Product1","Price":"1200","Payment_Type":"Diners","Name":"Petra","City":"Bergen","State":"Nordrhein-Westfalen","Country":"Germany","Account_Created":"1\/7\/098:39","Last_Login":"1\/15\/0912:14","Latitude":"51.7166667","Longitude":"6.5","id":115},{"Transaction_date":"1\/15\/0912:33","Product":"Product1","Price":"1200","Payment_Type":"Visa","Name":"Brian","City":"CollegePark","State":"MD","Country":"UnitedStates","Account_Created":"1\/15\/0912:19","Last_Login":"1\/15\/0913:28","Latitude":"38.98056","Longitude":"-76.93722","id":116},{"Transaction_date":"1\/14\/0911:35","Product":"Product1","Price":"1200","Payment_Type":"Visa","Name":"Kenny","City":"KailuaKona","State":"HI","Country":"UnitedStates","Account_Created":"1\/13\/0917:42","Last_Login":"1\/15\/0915:31","Latitude":"19.7349","Longitude":"-155.9003","id":117},{"Transaction_date":"1\/14\/0915:40","Product":"Product1","Price":"1200","Payment_Type":"Amex","Name":"ayse","City":"RedondoBeach","State":"CA","Country":"UnitedStates","Account_Created":"1\/13\/0919:37","Last_Login":"1\/15\/0915:45","Latitude":"33.84917","Longitude":"-118.3875","id":118},{"Transaction_date":"1\/3\/0911:08","Product":"Product1","Price":"1200","Payment_Type":"Amex","Name":"MariaandTimothy","City":"FountainHls","State":"AZ","Country":"UnitedStates","Account_Created":"6\/5\/0622:42","Last_Login":"1\/15\/0916:37","Latitude":"33.61167","Longitude":"-111.71667","id":119},{"Transaction_date":"1\/12\/091:37","Product":"Product1","Price":"1200","Payment_Type":"Visa","Name":"IMAN","City":"Brisbane","State":"Queensland","Country":"Australia","Account_Created":"1\/12\/091:26","Last_Login":"1\/15\/0917:54","Latitude":"-27.5","Longitude":"153.0166667","id":120},{"Transaction_date":"1\/16\/097:21","Product":"Product1","Price":"2100","Payment_Type":"Mastercard","Name":"Gerald","City":"Mahopac","State":"NY","Country":"UnitedStates","Account_Created":"11\/3\/0814:28","Last_Login":"1\/16\/096:08","Latitude":"41.37222","Longitude":"-73.73389","id":121},{"Transaction_date":"1\/15\/0912:54","Product":"Product1","Price":"1200","Payment_Type":"Mastercard","Name":"Annelies","City":"Ile-Perrot","State":"Quebec","Country":"Canada","Account_Created":"1\/15\/0912:22","Last_Login":"1\/16\/097:53","Latitude":"45.4","Longitude":"-73.9333333","id":122},{"Transaction_date":"1\/7\/097:19","Product":"Product1","Price":"1200","Payment_Type":"Amex","Name":"Jocelyn","City":"Bruxelles","State":"Brussels(Bruxelles)","Country":"Belgium","Account_Created":"6\/30\/089:33","Last_Login":"1\/16\/098:54","Latitude":"50.8333333","Longitude":"4.3333333","id":123},{"Transaction_date":"1\/3\/099:56","Product":"Product1","Price":"1200","Payment_Type":"Visa","Name":"Kara","City":"Chicago","State":"IL","Country":"UnitedStates","Account_Created":"12\/31\/0816:26","Last_Login":"1\/16\/0913:43","Latitude":"41.85","Longitude":"-87.65","id":124},{"Transaction_date":"1\/16\/0917:41","Product":"Product1","Price":"1200","Payment_Type":"Visa","Name":"Orsi","City":"Rayford","State":"TX","Country":"UnitedStates","Account_Created":"1\/16\/0917:01","Last_Login":"1\/16\/0917:56","Latitude":"30.07972","Longitude":"-95.41694","id":125},{"Transaction_date":"1\/5\/095:33","Product":"Product1","Price":"1200","Payment_Type":"Visa","Name":"Ben","City":"Escondido","State":"CA","Country":"UnitedStates","Account_Created":"1\/5\/093:19","Last_Login":"1\/17\/090:35","Latitude":"33.11917","Longitude":"-117.08556","id":126},{"Transaction_date":"1\/2\/090:50","Product":"Product1","Price":"1200","Payment_Type":"Visa","Name":"Sam","City":"Tesvikiye","State":"Istanbul","Country":"Turkey","Account_Created":"1\/2\/090:10","Last_Login":"1\/17\/091:57","Latitude":"40.6166667","Longitude":"29.0666667","id":127},{"Transaction_date":"1\/13\/091:51","Product":"Product1","Price":"1200","Payment_Type":"Visa","Name":"FilipandTeresa","City":"Centurion","State":"Gauteng","Country":"SouthAfrica","Account_Created":"1\/12\/091:40","Last_Login":"1\/17\/092:23","Latitude":"-25.8744444","Longitude":"28.1705556","id":128},{"Transaction_date":"1\/15\/0910:24","Product":"Product1","Price":"1200","Payment_Type":"Visa","Name":"Grace","City":"York","State":"England","Country":"UnitedKingdom","Account_Created":"1\/13\/0912:30","Last_Login":"1\/17\/094:42","Latitude":"53.9666667","Longitude":"-1.0833333","id":129},{"Transaction_date":"1\/11\/098:59","Product":"Product1","Price":"1200","Payment_Type":"Visa","Name":"Chelsey","City":"Ashburn","State":"VA","Country":"UnitedStates","Account_Created":"11\/9\/085:53","Last_Login":"1\/17\/098:54","Latitude":"39.04361","Longitude":"-77.48778","id":130},{"Transaction_date":"1\/15\/0915:56","Product":"Product1","Price":"1200","Payment_Type":"Amex","Name":"Charis","City":"LosAngeles","State":"CA","Country":"UnitedStates","Account_Created":"11\/11\/0511:49","Last_Login":"1\/17\/0910:54","Latitude":"34.05222","Longitude":"-118.24278","id":131},{"Transaction_date":"1\/1\/0912:19","Product":"Product1","Price":"1200","Payment_Type":"Visa","Name":"Marlene","City":"Edgewood","State":"WA","Country":"UnitedStates","Account_Created":"1\/16\/0614:45","Last_Login":"1\/17\/0911:38","Latitude":"47.25028","Longitude":"-122.2925","id":132},{"Transaction_date":"1\/6\/0914:03","Product":"Product1","Price":"1200","Payment_Type":"Visa","Name":"Fie","City":"NewYork","State":"NY","Country":"UnitedStates","Account_Created":"5\/1\/088:26","Last_Login":"1\/17\/0911:44","Latitude":"40.71417","Longitude":"-74.00639","id":133},{"Transaction_date":"1\/9\/0915:32","Product":"Product1","Price":"1200","Payment_Type":"Diners","Name":"Nicole","City":"Basingstoke","State":"England","Country":"UnitedKingdom","Account_Created":"1\/7\/0912:31","Last_Login":"1\/17\/0912:03","Latitude":"51.2666667","Longitude":"-1.0833333","id":134},{"Transaction_date":"1\/17\/0912:59","Product":"Product1","Price":"1200","Payment_Type":"Diners","Name":"Linda","City":"DenHaag","State":"Zuid-Holland","Country":"Netherlands","Account_Created":"10\/29\/0813:09","Last_Login":"1\/17\/0913:07","Latitude":"52.0833333","Longitude":"4.3","id":135},{"Transaction_date":"1\/12\/0912:37","Product":"Product1","Price":"1200","Payment_Type":"Visa","Name":"Janet","City":"Marietta","State":"GA","Country":"UnitedStates","Account_Created":"9\/13\/0714:20","Last_Login":"1\/17\/0916:17","Latitude":"33.9525","Longitude":"-84.55","id":136},{"Transaction_date":"1\/4\/097:43","Product":"Product1","Price":"1200","Payment_Type":"Mastercard","Name":"Jamie","City":"Houston","State":"TX","Country":"UnitedStates","Account_Created":"1\/4\/096:51","Last_Login":"1\/17\/0917:31","Latitude":"29.76306","Longitude":"-95.36306","id":137},{"Transaction_date":"1\/17\/0916:22","Product":"Product1","Price":"1200","Payment_Type":"Visa","Name":"Chad","City":"WestOrange","State":"NJ","Country":"UnitedStates","Account_Created":"1\/17\/0915:22","Last_Login":"1\/17\/0918:42","Latitude":"40.79861","Longitude":"-74.23944","id":138},{"Transaction_date":"1\/1\/093:51","Product":"Product1","Price":"1200","Payment_Type":"Mastercard","Name":"sunny","City":"Amsterdam","State":"Noord-Holland","Country":"Netherlands","Account_Created":"9\/14\/0522:53","Last_Login":"1\/17\/0922:34","Latitude":"52.35","Longitude":"4.9166667","id":139},{"Transaction_date":"1\/18\/095:27","Product":"Product1","Price":"1200","Payment_Type":"Visa","Name":"Anna","City":"Downey","State":"CA","Country":"UnitedStates","Account_Created":"1\/18\/094:28","Last_Login":"1\/18\/094:42","Latitude":"33.94","Longitude":"-118.13167","id":140},{"Transaction_date":"1\/18\/095:15","Product":"Product1","Price":"1200","Payment_Type":"Diners","Name":"Roger","City":"Urlingford","State":"Kilkenny","Country":"Ireland","Account_Created":"1\/18\/094:44","Last_Login":"1\/18\/094:44","Latitude":"52.7205556","Longitude":"-7.5825","id":141},{"Transaction_date":"1\/1\/091:51","Product":"Product1","Price":"1200","Payment_Type":"Mastercard","Name":"Si","City":"Holte","State":"Kobenhavn","Country":"Denmark","Account_Created":"12\/14\/0515:46","Last_Login":"1\/18\/094:44","Latitude":"55.8166667","Longitude":"12.4666667","id":142},{"Transaction_date":"1\/18\/096:30","Product":"Product1","Price":"1200","Payment_Type":"Visa","Name":"Sherri","City":"Freienbach","State":"Schwyz","Country":"Switzerland","Account_Created":"6\/22\/0814:10","Last_Login":"1\/18\/096:21","Latitude":"47.2","Longitude":"8.75","id":143},{"Transaction_date":"1\/11\/0910:51","Product":"Product1","Price":"1200","Payment_Type":"Mastercard","Name":"Katherine","City":"HofheimamTaunus","State":"Hessen","Country":"Germany","Account_Created":"12\/6\/081:34","Last_Login":"1\/18\/097:17","Latitude":"50.0833333","Longitude":"8.45","id":144},{"Transaction_date":"1\/4\/0917:02","Product":"Product1","Price":"1200","Payment_Type":"Mastercard","Name":"Clare","City":"Lafayette","State":"CA","Country":"UnitedStates","Account_Created":"12\/31\/050:55","Last_Login":"1\/18\/098:43","Latitude":"37.88583","Longitude":"-122.11694","id":145},{"Transaction_date":"1\/17\/091:23","Product":"Product1","Price":"1200","Payment_Type":"Amex","Name":"Campbell","City":"Mushrif","State":"","Country":"Kuwait","Account_Created":"1\/16\/0914:26","Last_Login":"1\/18\/099:08","Latitude":"29.2891667","Longitude":"48.05","id":146},{"Transaction_date":"1\/18\/092:16","Product":"Product1","Price":"1200","Payment_Type":"Visa","Name":"Ruth","City":"Nashville","State":"AR","Country":"UnitedStates","Account_Created":"1\/16\/0919:32","Last_Login":"1\/18\/099:13","Latitude":"33.94556","Longitude":"-93.84694","id":147},{"Transaction_date":"1\/18\/0911:34","Product":"Product2","Price":"3600","Payment_Type":"Visa","Name":"Cheryl","City":"NewMalden","State":"England","Country":"UnitedKingdom","Account_Created":"10\/28\/0514:57","Last_Login":"1\/18\/0910:27","Latitude":"51.4166667","Longitude":"-0.25","id":148},{"Transaction_date":"1\/18\/094:38","Product":"Product1","Price":"1200","Payment_Type":"Visa","Name":"Doug","City":"BishopAuckland","State":"England","Country":"UnitedKingdom","Account_Created":"12\/28\/0713:39","Last_Login":"1\/18\/0911:58","Latitude":"54.65","Longitude":"-1.6666667","id":149},{"Transaction_date":"1\/18\/0913:26","Product":"Product3","Price":"7500","Payment_Type":"Mastercard","Name":"Julianne","City":"Navan","State":"Meath","Country":"Ireland","Account_Created":"1\/18\/0912:20","Last_Login":"1\/18\/0912:20","Latitude":"53.6527778","Longitude":"-6.6813889","id":150},{"Transaction_date":"1\/18\/0911:53","Product":"Product1","Price":"1200","Payment_Type":"Visa","Name":"Shailesh","City":"Joppa","State":"MD","Country":"UnitedStates","Account_Created":"1\/18\/090:00","Last_Login":"1\/18\/0912:23","Latitude":"39.43361","Longitude":"-76.35806","id":151},{"Transaction_date":"1\/18\/0912:04","Product":"Product1","Price":"1200","Payment_Type":"Visa","Name":"Conrad","City":"Joppa","State":"MD","Country":"UnitedStates","Account_Created":"1\/18\/090:00","Last_Login":"1\/18\/0912:23","Latitude":"39.43361","Longitude":"-76.35806","id":152},{"Transaction_date":"1\/13\/0919:54","Product":"Product1","Price":"1200","Payment_Type":"Diners","Name":"Alison","City":"Hampton","State":"NJ","Country":"UnitedStates","Account_Created":"1\/3\/066:09","Last_Login":"1\/18\/0912:51","Latitude":"40.70694","Longitude":"-74.95639","id":153},{"Transaction_date":"1\/5\/0921:06","Product":"Product1","Price":"1200","Payment_Type":"Mastercard","Name":"Tracy","City":"Louisville","State":"KY","Country":"UnitedStates","Account_Created":"1\/5\/0916:27","Last_Login":"1\/18\/0913:58","Latitude":"38.25417","Longitude":"-85.75944","id":154},{"Transaction_date":"1\/14\/096:32","Product":"Product1","Price":"1200","Payment_Type":"Visa","Name":"Kate","City":"Broadlands","State":"VA","Country":"UnitedStates","Account_Created":"4\/12\/066:14","Last_Login":"1\/18\/0914:04","Latitude":"39.04361","Longitude":"-77.48778","id":155},{"Transaction_date":"1\/4\/0923:48","Product":"Product1","Price":"1200","Payment_Type":"Diners","Name":"Sarka","City":"Yellowknife","State":"NorthwestTerritories","Country":"Canada","Account_Created":"1\/4\/0922:41","Last_Login":"1\/18\/0916:17","Latitude":"62.45","Longitude":"-114.35","id":156},{"Transaction_date":"1\/18\/0916:32","Product":"Product2","Price":"3600","Payment_Type":"Visa","Name":"Therese","City":"LosAngeles","State":"CA","Country":"UnitedStates","Account_Created":"1\/18\/0916:23","Last_Login":"1\/18\/0916:54","Latitude":"34.05222","Longitude":"-118.24278","id":157},{"Transaction_date":"1\/18\/0917:04","Product":"Product2","Price":"3600","Payment_Type":"Visa","Name":"Abdul-L","City":"NewYork","State":"NY","Country":"UnitedStates","Account_Created":"1\/18\/0916:58","Last_Login":"1\/18\/0916:58","Latitude":"40.71417","Longitude":"-74.00639","id":158},{"Transaction_date":"1\/18\/0917:20","Product":"Product2","Price":"3600","Payment_Type":"Visa","Name":"heidi","City":"SaintPaul","State":"MN","Country":"UnitedStates","Account_Created":"1\/18\/0917:16","Last_Login":"1\/18\/0917:16","Latitude":"44.94444","Longitude":"-93.09306","id":159},{"Transaction_date":"1\/18\/0917:39","Product":"Product2","Price":"3600","Payment_Type":"Visa","Name":"jiyoung","City":"NewYork","State":"NY","Country":"UnitedStates","Account_Created":"1\/18\/0917:34","Last_Login":"1\/18\/0917:34","Latitude":"40.71417","Longitude":"-74.00639","id":160},{"Transaction_date":"1\/11\/0911:20","Product":"Product1","Price":"1200","Payment_Type":"Visa","Name":"Klara","City":"SpringLakePark","State":"MN","Country":"UnitedStates","Account_Created":"12\/31\/0819:48","Last_Login":"1\/18\/0917:43","Latitude":"45.10778","Longitude":"-93.23778","id":161},{"Transaction_date":"1\/13\/0920:59","Product":"Product1","Price":"1200","Payment_Type":"Mastercard","Name":"Andrew","City":"Winnipeg","State":"Manitoba","Country":"Canada","Account_Created":"1\/13\/0916:44","Last_Login":"1\/18\/0919:17","Latitude":"49.8833333","Longitude":"-97.1666667","id":162},{"Transaction_date":"1\/12\/0916:50","Product":"Product1","Price":"1200","Payment_Type":"Visa","Name":"VickiandBill","City":"Seattle","State":"WA","Country":"UnitedStates","Account_Created":"1\/4\/0921:33","Last_Login":"1\/19\/091:22","Latitude":"47.60639","Longitude":"-122.33083","id":163},{"Transaction_date":"1\/12\/0915:12","Product":"Product1","Price":"1200","Payment_Type":"Mastercard","Name":"David","City":"Deptford","State":"NJ","Country":"UnitedStates","Account_Created":"1\/12\/0914:07","Last_Login":"1\/19\/093:47","Latitude":"39.83806","Longitude":"-75.15306","id":164},{"Transaction_date":"1\/6\/0912:27","Product":"Product1","Price":"1200","Payment_Type":"Mastercard","Name":"Antonella","City":"Amsterdam","State":"Noord-Holland","Country":"Netherlands","Account_Created":"1\/6\/0912:04","Last_Login":"1\/19\/094:59","Latitude":"52.35","Longitude":"4.9166667","id":165},{"Transaction_date":"1\/9\/0918:52","Product":"Product1","Price":"1200","Payment_Type":"Visa","Name":"David","City":"Alpharetta","State":"GA","Country":"UnitedStates","Account_Created":"11\/25\/087:56","Last_Login":"1\/19\/096:12","Latitude":"34.07528","Longitude":"-84.29417","id":166},{"Transaction_date":"1\/18\/0923:17","Product":"Product1","Price":"1200","Payment_Type":"Visa","Name":"Greg","City":"Washington","State":"DC","Country":"UnitedStates","Account_Created":"1\/18\/0915:18","Last_Login":"1\/19\/096:13","Latitude":"38.895","Longitude":"-77.03667","id":167},{"Transaction_date":"1\/7\/098:21","Product":"Product1","Price":"1200","Payment_Type":"Visa","Name":"Jannik","City":"Holmenkollen","State":"Oslo","Country":"Norway","Account_Created":"1\/3\/0911:06","Last_Login":"1\/19\/096:54","Latitude":"59.9666667","Longitude":"10.6666667","id":168},{"Transaction_date":"1\/3\/099:54","Product":"Product1","Price":"1200","Payment_Type":"Visa","Name":"Sylvia","City":"Zekeriyakoy","State":"Istanbul","Country":"Turkey","Account_Created":"12\/29\/0810:38","Last_Login":"1\/19\/097:37","Latitude":"41.1980556","Longitude":"29.0302778","id":169},{"Transaction_date":"1\/5\/0919:37","Product":"Product1","Price":"1200","Payment_Type":"Amex","Name":"Bernadette","City":"Washington","State":"DC","Country":"UnitedStates","Account_Created":"11\/7\/079:49","Last_Login":"1\/19\/097:42","Latitude":"38.895","Longitude":"-77.03667","id":170},{"Transaction_date":"1\/4\/0912:49","Product":"Product1","Price":"1200","Payment_Type":"Diners","Name":"Denise","City":"Montreal","State":"Quebec","Country":"Canada","Account_Created":"5\/25\/0710:58","Last_Login":"1\/19\/097:58","Latitude":"45.5","Longitude":"-73.5833333","id":171},{"Transaction_date":"1\/8\/0911:55","Product":"Product2","Price":"3600","Payment_Type":"Visa","Name":"Caren","City":"Braunschweig","State":"LowerSaxony","Country":"Germany","Account_Created":"1\/3\/0912:39","Last_Login":"1\/19\/098:31","Latitude":"52.2666667","Longitude":"10.5333333","id":172},{"Transaction_date":"1\/14\/0918:21","Product":"Product1","Price":"1200","Payment_Type":"Visa","Name":"luciana","City":"Athens","State":"GA","Country":"UnitedStates","Account_Created":"9\/25\/056:25","Last_Login":"1\/19\/0911:21","Latitude":"33.96083","Longitude":"-83.37806","id":173},{"Transaction_date":"1\/11\/0919:01","Product":"Product1","Price":"1200","Payment_Type":"Diners","Name":"Maja","City":"Hoschton","State":"GA","Country":"UnitedStates","Account_Created":"1\/11\/0918:17","Last_Login":"1\/19\/0912:47","Latitude":"34.09639","Longitude":"-83.76139","id":174},{"Transaction_date":"1\/14\/095:20","Product":"Product2","Price":"3600","Payment_Type":"Visa","Name":"Kristen","City":"Binningen","State":"Basel-Country","Country":"Switzerland","Account_Created":"1\/12\/0913:31","Last_Login":"1\/19\/0913:07","Latitude":"47.5333333","Longitude":"7.5666667","id":175},{"Transaction_date":"1\/15\/098:07","Product":"Product1","Price":"1200","Payment_Type":"Visa","Name":"Kirstie","City":"RoyalOak","State":"MI","Country":"UnitedStates","Account_Created":"12\/13\/0819:35","Last_Login":"1\/19\/0914:59","Latitude":"42.48944","Longitude":"-83.14472","id":176},{"Transaction_date":"1\/15\/098:10","Product":"Product1","Price":"1200","Payment_Type":"Visa","Name":"Scott","City":"RoyalOak","State":"MI","Country":"UnitedStates","Account_Created":"12\/13\/0819:35","Last_Login":"1\/19\/0914:59","Latitude":"42.48944","Longitude":"-83.14472","id":177},{"Transaction_date":"1\/2\/0917:45","Product":"Product1","Price":"1200","Payment_Type":"Mastercard","Name":"Jammie","City":"Belmont","State":"MA","Country":"UnitedStates","Account_Created":"12\/9\/0517:19","Last_Login":"1\/19\/0915:36","Latitude":"42.39583","Longitude":"-71.17917","id":178},{"Transaction_date":"1\/19\/0916:10","Product":"Product1","Price":"1200","Payment_Type":"Mastercard","Name":"Frank","City":"OldGreenwich","State":"CT","Country":"UnitedStates","Account_Created":"1\/19\/0915:31","Last_Login":"1\/19\/0916:00","Latitude":"41.02278","Longitude":"-73.56528","id":179},{"Transaction_date":"1\/19\/0916:55","Product":"Product1","Price":"1200","Payment_Type":"Mastercard","Name":"scott","City":"CoconutGrove","State":"FL","Country":"UnitedStates","Account_Created":"1\/19\/0916:18","Last_Login":"1\/19\/0916:18","Latitude":"25.71222","Longitude":"-80.25722","id":180},{"Transaction_date":"1\/10\/0917:41","Product":"Product1","Price":"1200","Payment_Type":"Visa","Name":"Jiri","City":"Vienna","State":"VA","Country":"UnitedStates","Account_Created":"1\/10\/0916:32","Last_Login":"1\/19\/0917:52","Latitude":"38.90111","Longitude":"-77.26556","id":181},{"Transaction_date":"1\/18\/0913:49","Product":"Product2","Price":"3600","Payment_Type":"Visa","Name":"Bev","City":"SanRamon","State":"CA","Country":"UnitedStates","Account_Created":"1\/11\/0912:00","Last_Login":"1\/19\/0918:07","Latitude":"37.78","Longitude":"-121.97694","id":182},{"Transaction_date":"1\/15\/095:47","Product":"Product1","Price":"1200","Payment_Type":"Visa","Name":"DaveandAmy","City":"Norfolk","State":"VA","Country":"UnitedStates","Account_Created":"1\/15\/090:21","Last_Login":"1\/19\/0922:48","Latitude":"36.84667","Longitude":"-76.28556","id":183},{"Transaction_date":"1\/19\/0923:06","Product":"Product1","Price":"1200","Payment_Type":"Mastercard","Name":"Rebecca","City":"Norfolk","State":"VA","Country":"UnitedStates","Account_Created":"1\/19\/0922:53","Last_Login":"1\/19\/0922:53","Latitude":"36.84667","Longitude":"-76.28556","id":184},{"Transaction_date":"1\/19\/0911:12","Product":"Product1","Price":"1200","Payment_Type":"Visa","Name":"Melissa","City":"Aberdeen","State":"Scotland","Country":"UnitedKingdom","Account_Created":"8\/27\/088:22","Last_Login":"1\/20\/090:35","Latitude":"57.1333333","Longitude":"-2.1","id":185},{"Transaction_date":"1\/4\/091:38","Product":"Product1","Price":"1200","Payment_Type":"Amex","Name":"jeremy","City":"Charlestown","State":"NewSouthWales","Country":"Australia","Account_Created":"7\/15\/0821:04","Last_Login":"1\/20\/091:08","Latitude":"-32.95","Longitude":"151.6666667","id":186},{"Transaction_date":"1\/20\/093:11","Product":"Product1","Price":"1200","Payment_Type":"Visa","Name":"Randy","City":"Wigan","State":"England","Country":"UnitedKingdom","Account_Created":"1\/20\/093:02","Last_Login":"1\/20\/093:06","Latitude":"53.5333333","Longitude":"-2.6166667","id":187},{"Transaction_date":"1\/3\/0910:52","Product":"Product1","Price":"1200","Payment_Type":"Visa","Name":"Djeiny","City":"Rockville","State":"MD","Country":"UnitedStates","Account_Created":"4\/18\/059:27","Last_Login":"1\/20\/096:47","Latitude":"39.01806","Longitude":"-77.20889","id":188},{"Transaction_date":"1\/20\/095:24","Product":"Product3","Price":"7500","Payment_Type":"Mastercard","Name":"Amanda","City":"Shreveport","State":"LA","Country":"UnitedStates","Account_Created":"1\/20\/095:13","Last_Login":"1\/20\/097:15","Latitude":"32.525","Longitude":"-93.75","id":189},{"Transaction_date":"1\/20\/096:03","Product":"Product1","Price":"1200","Payment_Type":"Mastercard","Name":"Andrea","City":"Shreveport","State":"LA","Country":"UnitedStates","Account_Created":"1\/20\/095:13","Last_Login":"1\/20\/097:15","Latitude":"32.525","Longitude":"-93.75","id":190},{"Transaction_date":"1\/10\/0911:37","Product":"Product1","Price":"1200","Payment_Type":"Amex","Name":"Joanna","City":"LittleSilver","State":"NJ","Country":"UnitedStates","Account_Created":"12\/28\/0820:10","Last_Login":"1\/20\/097:42","Latitude":"40.33667","Longitude":"-74.0475","id":191},{"Transaction_date":"1\/20\/095:50","Product":"Product1","Price":"1200","Payment_Type":"Visa","Name":"Jessica","City":"AbbeyTown","State":"England","Country":"UnitedKingdom","Account_Created":"1\/20\/094:23","Last_Login":"1\/20\/097:46","Latitude":"54.8333333","Longitude":"-3.2833333","id":192},{"Transaction_date":"1\/19\/0916:32","Product":"Product1","Price":"1200","Payment_Type":"Amex","Name":"alison","City":"MidCityWest","State":"PA","Country":"UnitedStates","Account_Created":"1\/19\/0910:24","Last_Login":"1\/20\/0910:09","Latitude":"39.95222","Longitude":"-75.16417","id":193},{"Transaction_date":"1\/18\/0910:42","Product":"Product1","Price":"1200","Payment_Type":"Visa","Name":"malin","City":"Atlanta","State":"Georgia","Country":"UnitedStates","Account_Created":"1\/18\/090:00","Last_Login":"1\/20\/0911:09","Latitude":"33.74889","Longitude":"-84.38806","id":194},{"Transaction_date":"1\/7\/096:11","Product":"Product2","Price":"3600","Payment_Type":"Visa","Name":"Tiffany","City":"Paris","State":"Ile-de-France","Country":"France","Account_Created":"1\/7\/095:30","Last_Login":"1\/20\/0911:22","Latitude":"48.8666667","Longitude":"2.3333333","id":195},{"Transaction_date":"1\/3\/098:29","Product":"Product1","Price":"1200","Payment_Type":"Visa","Name":"Genevieve","City":"MiltonKeynes","State":"England","Country":"UnitedKingdom","Account_Created":"10\/10\/081:26","Last_Login":"1\/20\/0911:31","Latitude":"52.0333333","Longitude":"-0.7","id":196},{"Transaction_date":"1\/1\/092:09","Product":"Product1","Price":"1200","Payment_Type":"Mastercard","Name":"Saraya","City":"Dresden","State":"Saxony","Country":"Germany","Account_Created":"3\/12\/0611:31","Last_Login":"1\/20\/0911:56","Latitude":"51.05","Longitude":"13.75","id":197},{"Transaction_date":"1\/20\/0912:34","Product":"Product1","Price":"1200","Payment_Type":"Mastercard","Name":"Anastasia","City":"NYC","State":"NY","Country":"UnitedStates","Account_Created":"1\/20\/0912:17","Last_Login":"1\/20\/0912:55","Latitude":"40.71417","Longitude":"-74.00639","id":198},{"Transaction_date":"1\/20\/093:51","Product":"Product1","Price":"1200","Payment_Type":"Visa","Name":"Elizabeth","City":"TheGrange","State":"Queensland","Country":"Australia","Account_Created":"11\/12\/083:34","Last_Login":"1\/20\/0913:11","Latitude":"-24.8166667","Longitude":"152.4166667","id":199},{"Transaction_date":"1\/15\/0911:26","Product":"Product1","Price":"1200","Payment_Type":"Visa","Name":"Nicole","City":"Brookline","State":"MA","Country":"UnitedStates","Account_Created":"7\/11\/0711:18","Last_Login":"1\/20\/0914:01","Latitude":"42.33167","Longitude":"-71.12167","id":200},{"Transaction_date":"1\/5\/0916:55","Product":"Product1","Price":"1200","Payment_Type":"Visa","Name":"Jeffrey","City":"Montreal-Nord","State":"Quebec","Country":"Canada","Account_Created":"9\/29\/0317:08","Last_Login":"1\/20\/0914:38","Latitude":"45.6","Longitude":"-73.6166667","id":201},{"Transaction_date":"1\/12\/0919:47","Product":"Product1","Price":"1200","Payment_Type":"Mastercard","Name":"BlancaGabriela","City":"Irving","State":"TX","Country":"UnitedStates","Account_Created":"12\/10\/0821:49","Last_Login":"1\/20\/0918:02","Latitude":"32.81389","Longitude":"-96.94861","id":202},{"Transaction_date":"1\/4\/0919:20","Product":"Product1","Price":"1200","Payment_Type":"Amex","Name":"Elisa","City":"OttawaHills","State":"OH","Country":"UnitedStates","Account_Created":"1\/4\/0918:38","Last_Login":"1\/20\/0918:03","Latitude":"41.66417","Longitude":"-83.64333","id":203},{"Transaction_date":"1\/10\/098:33","Product":"Product2","Price":"3600","Payment_Type":"Mastercard","Name":"Patricia","City":"PortolaValley","State":"CA","Country":"UnitedStates","Account_Created":"2\/4\/0710:09","Last_Login":"1\/20\/0922:06","Latitude":"37.38417","Longitude":"-122.23417","id":204},{"Transaction_date":"1\/9\/0914:51","Product":"Product1","Price":"1200","Payment_Type":"Visa","Name":"Bob","City":"Sydney","State":"NewSouthWales","Country":"Australia","Account_Created":"1\/7\/0918:15","Last_Login":"1\/21\/090:29","Latitude":"-33.8833333","Longitude":"151.2166667","id":205},{"Transaction_date":"1\/16\/092:41","Product":"Product3","Price":"7500","Payment_Type":"Visa","Name":"Kristyn","City":"Kearns","State":"UT","Country":"UnitedStates","Account_Created":"1\/15\/0918:01","Last_Login":"1\/21\/091:02","Latitude":"40.66","Longitude":"-111.99556","id":206},{"Transaction_date":"1\/16\/0918:36","Product":"Product1","Price":"1200","Payment_Type":"Visa","Name":"Elizabeth","City":"Wollongong","State":"NewSouthWales","Country":"Australia","Account_Created":"11\/1\/0816:32","Last_Login":"1\/21\/091:49","Latitude":"-34.4333333","Longitude":"150.8833333","id":207},{"Transaction_date":"1\/20\/098:10","Product":"Product1","Price":"1200","Payment_Type":"Amex","Name":"Cathy","City":"Brooklyn","State":"NY","Country":"UnitedStates","Account_Created":"8\/5\/0718:52","Last_Login":"1\/21\/095:16","Latitude":"40.65","Longitude":"-73.95","id":208},{"Transaction_date":"1\/6\/0912:45","Product":"Product2","Price":"3600","Payment_Type":"Amex","Name":"Kaylee","City":"Penngrove","State":"CA","Country":"UnitedStates","Account_Created":"1\/5\/0914:06","Last_Login":"1\/21\/0911:18","Latitude":"38.29972","Longitude":"-122.66556","id":209},{"Transaction_date":"1\/10\/098:13","Product":"Product1","Price":"1200","Payment_Type":"Visa","Name":"suzanne","City":"Lemont","State":"IL","Country":"UnitedStates","Account_Created":"1\/9\/0919:15","Last_Login":"1\/21\/0911:35","Latitude":"41.67361","Longitude":"-88.00167","id":210},{"Transaction_date":"1\/7\/0914:15","Product":"Product1","Price":"1200","Payment_Type":"Mastercard","Name":"Cassandra","City":"SanCarlos","State":"CA","Country":"UnitedStates","Account_Created":"1\/5\/0915:42","Last_Login":"1\/21\/0912:00","Latitude":"37.50722","Longitude":"-122.25944","id":211},{"Transaction_date":"1\/8\/0915:27","Product":"Product1","Price":"1200","Payment_Type":"Mastercard","Name":"Jennifer","City":"Chicago","State":"IL","Country":"UnitedStates","Account_Created":"1\/4\/0922:22","Last_Login":"1\/21\/0913:28","Latitude":"41.85","Longitude":"-87.65","id":212},{"Transaction_date":"1\/21\/0911:36","Product":"Product1","Price":"1200","Payment_Type":"Visa","Name":"nicole","City":"Oslo","State":"Oslo","Country":"Norway","Account_Created":"12\/23\/0812:02","Last_Login":"1\/21\/0913:47","Latitude":"59.9166667","Longitude":"10.75","id":213},{"Transaction_date":"1\/21\/0914:06","Product":"Product1","Price":"1200","Payment_Type":"Visa","Name":"Sean","City":"Wantagh","State":"NY","Country":"UnitedStates","Account_Created":"1\/21\/0912:00","Last_Login":"1\/21\/0914:06","Latitude":"40.68361","Longitude":"-73.51056","id":214},{"Transaction_date":"1\/2\/092:28","Product":"Product1","Price":"1200","Payment_Type":"Mastercard","Name":"Morgan","City":"Coomera","State":"Queensland","Country":"Australia","Account_Created":"5\/3\/084:14","Last_Login":"1\/21\/0916:37","Latitude":"-27.8833333","Longitude":"153.3","id":215},{"Transaction_date":"1\/19\/0919:07","Product":"Product1","Price":"1200","Payment_Type":"Diners","Name":"Harriet","City":"FortOglethorpe","State":"GA","Country":"UnitedStates","Account_Created":"1\/19\/0916:52","Last_Login":"1\/21\/0917:02","Latitude":"34.94889","Longitude":"-85.25694","id":216},{"Transaction_date":"1\/18\/096:27","Product":"Product1","Price":"1200","Payment_Type":"Mastercard","Name":"Janine","City":"CorbinCity","State":"NJ","Country":"UnitedStates","Account_Created":"10\/27\/0519:22","Last_Login":"1\/21\/0917:10","Latitude":"39.24167","Longitude":"-74.81556","id":217},{"Transaction_date":"1\/20\/0911:58","Product":"Product1","Price":"1200","Payment_Type":"Mastercard","Name":"Debora","City":"Lakeside","State":"CA","Country":"UnitedStates","Account_Created":"11\/1\/0823:14","Last_Login":"1\/21\/0917:25","Latitude":"32.85722","Longitude":"-116.92139","id":218},{"Transaction_date":"1\/20\/0916:32","Product":"Product1","Price":"1200","Payment_Type":"Visa","Name":"Vishpala","City":"Margate","State":"FL","Country":"UnitedStates","Account_Created":"1\/2\/089:52","Last_Login":"1\/21\/0919:05","Latitude":"26.30972","Longitude":"-80.2375","id":219},{"Transaction_date":"1\/1\/097:09","Product":"Product1","Price":"1200","Payment_Type":"Amex","Name":"Emer","City":"SouthPalmBeach","State":"FL","Country":"UnitedStates","Account_Created":"2\/28\/055:40","Last_Login":"1\/21\/0919:14","Latitude":"26.70528","Longitude":"-80.03667","id":220},{"Transaction_date":"1\/21\/0914:55","Product":"Product1","Price":"1200","Payment_Type":"Diners","Name":"john","City":"NewYork","State":"NY","Country":"UnitedStates","Account_Created":"1\/21\/0910:23","Last_Login":"1\/21\/0920:34","Latitude":"40.71417","Longitude":"-74.00639","id":221},{"Transaction_date":"1\/7\/0922:29","Product":"Product1","Price":"1200","Payment_Type":"Mastercard","Name":"lailani","City":"Anchorage","State":"AK","Country":"UnitedStates","Account_Created":"1\/7\/0913:23","Last_Login":"1\/21\/0922:30","Latitude":"61.21806","Longitude":"-149.90028","id":222},{"Transaction_date":"1\/11\/0922:22","Product":"Product2","Price":"3600","Payment_Type":"Visa","Name":"STEPHANIE","City":"MonaVale","State":"NewSouthWales","Country":"Australia","Account_Created":"12\/30\/0817:48","Last_Login":"1\/21\/0922:33","Latitude":"-33.6666667","Longitude":"151.3","id":223},{"Transaction_date":"1\/21\/0914:25","Product":"Product1","Price":"1200","Payment_Type":"Visa","Name":"Tricia","City":"Castricum","State":"Noord-Holland","Country":"Netherlands","Account_Created":"12\/28\/0715:28","Last_Login":"1\/22\/090:38","Latitude":"52.55","Longitude":"4.6666667","id":224},{"Transaction_date":"1\/18\/0916:50","Product":"Product1","Price":"1200","Payment_Type":"Visa","Name":"Celina","City":"NorthBrunswick","State":"NJ","Country":"UnitedStates","Account_Created":"1\/18\/0916:25","Last_Login":"1\/22\/091:17","Latitude":"40.4497","Longitude":"-74.482","id":225},{"Transaction_date":"1\/21\/0912:08","Product":"Product2","Price":"3600","Payment_Type":"Visa","Name":"Rosemary","City":"Jacksonville","State":"FL","Country":"UnitedStates","Account_Created":"1\/21\/0911:39","Last_Login":"1\/22\/096:13","Latitude":"30.33194","Longitude":"-81.65583","id":226},{"Transaction_date":"1\/22\/096:41","Product":"Product1","Price":"1200","Payment_Type":"Visa","Name":"Patrick","City":"Baytown","State":"TX","Country":"UnitedStates","Account_Created":"1\/22\/094:32","Last_Login":"1\/22\/096:54","Latitude":"29.73528","Longitude":"-94.97722","id":227},{"Transaction_date":"1\/12\/099:23","Product":"Product1","Price":"1200","Payment_Type":"Mastercard","Name":"Jacob","City":"WinterHaven","State":"FL","Country":"UnitedStates","Account_Created":"1\/10\/0914:55","Last_Login":"1\/22\/097:59","Latitude":"28.02194","Longitude":"-81.73306","id":228},{"Transaction_date":"1\/22\/098:23","Product":"Product1","Price":"1200","Payment_Type":"Visa","Name":"elisabeth","City":"GonzagaUniv","State":"WA","Country":"UnitedStates","Account_Created":"1\/22\/097:55","Last_Login":"1\/22\/098:14","Latitude":"47.65889","Longitude":"-117.425","id":229},{"Transaction_date":"1\/3\/096:41","Product":"Product2","Price":"3600","Payment_Type":"Visa","Name":"ayelet","City":"Malmo","State":"Skane","Country":"Sweden","Account_Created":"8\/7\/089:24","Last_Login":"1\/22\/0911:24","Latitude":"55.6","Longitude":"13","id":230},{"Transaction_date":"1\/1\/0912:20","Product":"Product2","Price":"3600","Payment_Type":"Visa","Name":"seemab","City":"SanPawltat-Targa","State":"","Country":"Malta","Account_Created":"9\/17\/053:32","Last_Login":"1\/22\/0912:00","Latitude":"35.9202778","Longitude":"14.4425","id":231},{"Transaction_date":"1\/4\/0922:00","Product":"Product2","Price":"3600","Payment_Type":"Amex","Name":"Lucien","City":"Wiesbaden","State":"Hessen","Country":"Germany","Account_Created":"1\/4\/0911:32","Last_Login":"1\/22\/0912:21","Latitude":"50.0833333","Longitude":"8.25","id":232},{"Transaction_date":"1\/21\/092:15","Product":"Product1","Price":"1200","Payment_Type":"Visa","Name":"Kevin","City":"London","State":"England","Country":"UnitedKingdom","Account_Created":"1\/8\/092:50","Last_Login":"1\/22\/0913:46","Latitude":"51.52721","Longitude":"0.14559","id":233},{"Transaction_date":"1\/1\/0914:22","Product":"Product1","Price":"1200","Payment_Type":"Mastercard","Name":"Liban","City":"Stavanger","State":"Rogaland","Country":"Norway","Account_Created":"6\/19\/0810:48","Last_Login":"1\/22\/0914:38","Latitude":"58.9666667","Longitude":"5.75","id":234},{"Transaction_date":"1\/16\/091:07","Product":"Product2","Price":"3600","Payment_Type":"Diners","Name":"Lesley","City":"Cork","State":"Cork","Country":"Ireland","Account_Created":"1\/14\/094:10","Last_Login":"1\/22\/0915:06","Latitude":"51.8986111","Longitude":"-8.4958333","id":235},{"Transaction_date":"1\/20\/098:51","Product":"Product1","Price":"1200","Payment_Type":"Visa","Name":"Marie","City":"Winchester","State":"MA","Country":"UnitedStates","Account_Created":"7\/23\/0814:59","Last_Login":"1\/22\/0918:08","Latitude":"42.45222","Longitude":"-71.1375","id":236},{"Transaction_date":"1\/4\/099:02","Product":"Product1","Price":"1200","Payment_Type":"Visa","Name":"Charlene","City":"Calgary","State":"Alberta","Country":"Canada","Account_Created":"12\/13\/0819:20","Last_Login":"1\/22\/0919:27","Latitude":"51.0833333","Longitude":"-114.0833333","id":237},{"Transaction_date":"1\/6\/098:34","Product":"Product1","Price":"1200","Payment_Type":"Visa","Name":"Orit","City":"Dallas","State":"TX","Country":"UnitedStates","Account_Created":"1\/5\/0915:00","Last_Login":"1\/22\/0921:41","Latitude":"32.78333","Longitude":"-96.8","id":238},{"Transaction_date":"1\/8\/094:16","Product":"Product1","Price":"1200","Payment_Type":"Visa","Name":"Alan","City":"Malahide","State":"Dublin","Country":"Ireland","Account_Created":"4\/18\/0613:26","Last_Login":"1\/23\/092:21","Latitude":"53.4508333","Longitude":"-6.1544444","id":239},{"Transaction_date":"1\/23\/093:33","Product":"Product2","Price":"3600","Payment_Type":"Mastercard","Name":"AnjaLanger","City":"SaintPaul","State":"MN","Country":"UnitedStates","Account_Created":"1\/23\/093:00","Last_Login":"1\/23\/093:00","Latitude":"44.94444","Longitude":"-93.09306","id":240},{"Transaction_date":"1\/6\/094:18","Product":"Product1","Price":"1200","Payment_Type":"Visa","Name":"Lina","City":"Edinburgh","State":"Scotland","Country":"UnitedKingdom","Account_Created":"1\/6\/093:38","Last_Login":"1\/23\/093:22","Latitude":"55.95","Longitude":"-3.2","id":241},{"Transaction_date":"1\/23\/093:30","Product":"Product1","Price":"1200","Payment_Type":"Amex","Name":"Larry","City":"Naarden","State":"Noord-Holland","Country":"Netherlands","Account_Created":"1\/23\/093:27","Last_Login":"1\/23\/093:40","Latitude":"52.3","Longitude":"5.15","id":242},{"Transaction_date":"1\/10\/094:04","Product":"Product1","Price":"1200","Payment_Type":"Visa","Name":"Jessica","City":"Oldenburg","State":"LowerSaxony","Country":"Germany","Account_Created":"12\/20\/088:41","Last_Login":"1\/23\/095:28","Latitude":"53.1666667","Longitude":"8.2","id":243},{"Transaction_date":"1\/5\/092:57","Product":"Product3","Price":"7500","Payment_Type":"Visa","Name":"Marion","City":"Rennes","State":"Brittany","Country":"France","Account_Created":"12\/29\/083:16","Last_Login":"1\/23\/097:29","Latitude":"48.0833333","Longitude":"-1.6833333","id":244},{"Transaction_date":"1\/21\/0914:15","Product":"Product1","Price":"1200","Payment_Type":"Amex","Name":"Eric","City":"Ely","State":"NV","Country":"UnitedStates","Account_Created":"1\/21\/0913:56","Last_Login":"1\/23\/0910:35","Latitude":"39.2475","Longitude":"-114.88778","id":245},{"Transaction_date":"1\/21\/096:39","Product":"Product1","Price":"1200","Payment_Type":"Amex","Name":"Miriane","City":"Norfolk","State":"VA","Country":"UnitedStates","Account_Created":"7\/30\/0721:10","Last_Login":"1\/23\/0912:48","Latitude":"36.84667","Longitude":"-76.28556","id":246},{"Transaction_date":"1\/19\/098:14","Product":"Product1","Price":"1200","Payment_Type":"Visa","Name":"Jeff","City":"Houston","State":"TX","Country":"UnitedStates","Account_Created":"1\/4\/0912:39","Last_Login":"1\/23\/0912:52","Latitude":"29.76306","Longitude":"-95.36306","id":247},{"Transaction_date":"1\/23\/098:00","Product":"Product1","Price":"1200","Payment_Type":"Diners","Name":"christina","City":"Chepel","State":"Budapest","Country":"Hungary","Account_Created":"1\/22\/099:55","Last_Login":"1\/23\/0912:59","Latitude":"47.4166667","Longitude":"19.0833333","id":248},{"Transaction_date":"1\/22\/0923:35","Product":"Product1","Price":"1200","Payment_Type":"Mastercard","Name":"Shannon","City":"BuffaloGrove","State":"IL","Country":"UnitedStates","Account_Created":"1\/22\/0923:23","Last_Login":"1\/23\/0922:05","Latitude":"41.98111","Longitude":"-89.595","id":249},{"Transaction_date":"1\/14\/093:09","Product":"Product1","Price":"1200","Payment_Type":"Mastercard","Name":"Angela","City":"Newburgh","State":"Scotland","Country":"UnitedKingdom","Account_Created":"4\/25\/075:08","Last_Login":"1\/24\/092:12","Latitude":"56.3333333","Longitude":"-3.25","id":250},{"Transaction_date":"1\/16\/091:51","Product":"Product1","Price":"1200","Payment_Type":"Visa","Name":"Angela","City":"Vienna","State":"Vienna","Country":"Austria","Account_Created":"1\/16\/091:38","Last_Login":"1\/24\/095:39","Latitude":"48.2","Longitude":"16.3666667","id":251},{"Transaction_date":"1\/1\/096:29","Product":"Product1","Price":"1200","Payment_Type":"Mastercard","Name":"Elaine","City":"Vicenza","State":"Veneto","Country":"Italy","Account_Created":"8\/3\/072:48","Last_Login":"1\/24\/095:51","Latitude":"45.55","Longitude":"11.55","id":252},{"Transaction_date":"1\/21\/097:59","Product":"Product1","Price":"1200","Payment_Type":"Visa","Name":"Helen","City":"MechanicsGrove","State":"PA","Country":"UnitedStates","Account_Created":"4\/7\/0817:15","Last_Login":"1\/24\/096:01","Latitude":"39.89694","Longitude":"-76.16389","id":253},{"Transaction_date":"1\/23\/097:37","Product":"Product2","Price":"3600","Payment_Type":"Amex","Name":"Fatisha","City":"Miami","State":"FL","Country":"UnitedStates","Account_Created":"1\/23\/096:32","Last_Login":"1\/24\/096:54","Latitude":"25.77389","Longitude":"-80.19389","id":254},{"Transaction_date":"1\/18\/0914:39","Product":"Product1","Price":"1200","Payment_Type":"Visa","Name":"Nina","City":"SilverSpring","State":"MD","Country":"UnitedStates","Account_Created":"1\/5\/0915:43","Last_Login":"1\/24\/097:31","Latitude":"38.99056","Longitude":"-77.02639","id":255},{"Transaction_date":"1\/24\/099:01","Product":"Product2","Price":"3600","Payment_Type":"Visa","Name":"Barbara","City":"Kirriemuir","State":"Scotland","Country":"UnitedKingdom","Account_Created":"1\/24\/098:02","Last_Login":"1\/24\/098:02","Latitude":"56.6666667","Longitude":"-3","id":256},{"Transaction_date":"1\/15\/091:41","Product":"Product1","Price":"1200","Payment_Type":"Diners","Name":"Karen","City":"Roquefort","State":"Provence-Alpes-Coted'Azur","Country":"France","Account_Created":"1\/14\/094:13","Last_Login":"1\/24\/098:36","Latitude":"43.25","Longitude":"5.6166667","id":257},{"Transaction_date":"1\/17\/097:23","Product":"Product1","Price":"1200","Payment_Type":"Visa","Name":"Georgina","City":"Portland","State":"OR","Country":"UnitedStates","Account_Created":"11\/28\/0710:05","Last_Login":"1\/24\/098:54","Latitude":"45.52361","Longitude":"-122.675","id":258},{"Transaction_date":"1\/23\/0911:37","Product":"Product1","Price":"1200","Payment_Type":"Diners","Name":"Kellie","City":"StatenIsland","State":"NY","Country":"UnitedStates","Account_Created":"1\/23\/0910:42","Last_Login":"1\/24\/098:59","Latitude":"40.56472","Longitude":"-74.1275","id":259},{"Transaction_date":"1\/19\/0915:02","Product":"Product1","Price":"1200","Payment_Type":"Mastercard","Name":"Terry","City":"SanAntonio","State":"TX","Country":"UnitedStates","Account_Created":"1\/19\/0914:43","Last_Login":"1\/24\/0910:26","Latitude":"29.42389","Longitude":"-98.49333","id":260},{"Transaction_date":"1\/11\/097:10","Product":"Product2","Price":"3600","Payment_Type":"Visa","Name":"LAURIE","City":"Guildford","State":"England","Country":"UnitedKingdom","Account_Created":"3\/7\/065:47","Last_Login":"1\/24\/0914:54","Latitude":"51.2166667","Longitude":"-0.5666667","id":261},{"Transaction_date":"1\/10\/093:28","Product":"Product1","Price":"1200","Payment_Type":"Visa","Name":"frauke","City":"Horten","State":"Vestfold","Country":"Norway","Account_Created":"11\/24\/0815:50","Last_Login":"1\/24\/0915:10","Latitude":"59.4136111","Longitude":"10.4669444","id":262},{"Transaction_date":"1\/7\/0919:03","Product":"Product2","Price":"3600","Payment_Type":"Mastercard","Name":"Cindy","City":"Englewood","State":"CO","Country":"UnitedStates","Account_Created":"12\/17\/0719:55","Last_Login":"1\/24\/0919:19","Latitude":"39.64778","Longitude":"-104.98722","id":263},{"Transaction_date":"1\/17\/0914:02","Product":"Product1","Price":"1200","Payment_Type":"Visa","Name":"Simone","City":"SanAntonio","State":"TX","Country":"UnitedStates","Account_Created":"12\/7\/0519:48","Last_Login":"1\/24\/0921:29","Latitude":"29.42389","Longitude":"-98.49333","id":264},{"Transaction_date":"1\/25\/090:09","Product":"Product1","Price":"1200","Payment_Type":"Visa","Name":"Hilde","City":"Princeville","State":"HI","Country":"UnitedStates","Account_Created":"6\/20\/0822:08","Last_Login":"1\/25\/090:12","Latitude":"22.22361","Longitude":"-159.48528","id":265},{"Transaction_date":"1\/9\/0914:27","Product":"Product1","Price":"1200","Payment_Type":"Visa","Name":"Leah","City":"Castleknock","State":"Dublin","Country":"Ireland","Account_Created":"6\/14\/0713:14","Last_Login":"1\/25\/090:57","Latitude":"53.3786111","Longitude":"-6.3922222","id":266},{"Transaction_date":"1\/9\/0914:32","Product":"Product1","Price":"1200","Payment_Type":"Visa","Name":"Laine","City":"Castleknock","State":"Dublin","Country":"Ireland","Account_Created":"6\/14\/0713:14","Last_Login":"1\/25\/090:57","Latitude":"53.3786111","Longitude":"-6.3922222","id":267},{"Transaction_date":"1\/11\/0915:59","Product":"Product1","Price":"1200","Payment_Type":"Visa","Name":"kirsten","City":"BishopsStortford","State":"England","Country":"UnitedKingdom","Account_Created":"1\/17\/068:51","Last_Login":"1\/25\/093:03","Latitude":"51.8666667","Longitude":"0.1666667","id":268},{"Transaction_date":"1\/6\/0914:38","Product":"Product2","Price":"3600","Payment_Type":"Mastercard","Name":"Elizabeth","City":"DenHaag","State":"Zuid-Holland","Country":"Netherlands","Account_Created":"5\/14\/0712:48","Last_Login":"1\/25\/093:13","Latitude":"52.0833333","Longitude":"4.3","id":269},{"Transaction_date":"1\/6\/099:52","Product":"Product1","Price":"1200","Payment_Type":"Mastercard","Name":"Anna","City":"Lafayette","State":"CA","Country":"UnitedStates","Account_Created":"1\/3\/0915:01","Last_Login":"1\/25\/0910:19","Latitude":"37.88583","Longitude":"-122.11694","id":270},{"Transaction_date":"1\/1\/099:21","Product":"Product1","Price":"1200","Payment_Type":"Diners","Name":"Babs","City":"Blackpool","State":"England","Country":"UnitedKingdom","Account_Created":"1\/1\/098:05","Last_Login":"1\/25\/0910:52","Latitude":"53.8166667","Longitude":"-3.05","id":271},{"Transaction_date":"1\/3\/097:58","Product":"Product1","Price":"1200","Payment_Type":"Mastercard","Name":"Gerlinde","City":"Hellerup","State":"Kobenhavn","Country":"Denmark","Account_Created":"1\/2\/0912:27","Last_Login":"1\/25\/0911:13","Latitude":"55.7333333","Longitude":"12.5833333","id":272},{"Transaction_date":"1\/11\/0911:36","Product":"Product1","Price":"1200","Payment_Type":"Mastercard","Name":"Hollyn","City":"London","State":"England","Country":"UnitedKingdom","Account_Created":"10\/14\/0814:23","Last_Login":"1\/25\/0911:16","Latitude":"51.51334","Longitude":"-0.08895","id":273},{"Transaction_date":"1\/13\/0914:53","Product":"Product1","Price":"1200","Payment_Type":"Visa","Name":"leiser","City":"NJava","State":"NY","Country":"UnitedStates","Account_Created":"1\/13\/0913:22","Last_Login":"1\/25\/0911:33","Latitude":"42.68361","Longitude":"-78.33806","id":274},{"Transaction_date":"1\/1\/0910:06","Product":"Product2","Price":"3600","Payment_Type":"Mastercard","Name":"Irene","City":"Munich","State":"Bayern","Country":"Germany","Account_Created":"1\/1\/099:13","Last_Login":"1\/25\/0911:37","Latitude":"48.15","Longitude":"11.5833333","id":275},{"Transaction_date":"1\/16\/095:07","Product":"Product1","Price":"1200","Payment_Type":"Amex","Name":"Lisa","City":"Brulon","State":"PaysdelaLoire","Country":"France","Account_Created":"8\/6\/077:48","Last_Login":"1\/25\/0911:42","Latitude":"47.9666667","Longitude":"-0.2333333","id":276},{"Transaction_date":"1\/6\/0916:37","Product":"Product1","Price":"1200","Payment_Type":"Visa","Name":"Ann","City":"Austin","State":"TX","Country":"UnitedStates","Account_Created":"12\/28\/0812:31","Last_Login":"1\/25\/0912:17","Latitude":"30.26694","Longitude":"-97.74278","id":277},{"Transaction_date":"1\/18\/0917:21","Product":"Product1","Price":"1200","Payment_Type":"Mastercard","Name":"NicholJane","City":"MidlandPark","State":"NJ","Country":"UnitedStates","Account_Created":"1\/11\/0920:59","Last_Login":"1\/25\/0914:00","Latitude":"40.98917","Longitude":"-74.14111","id":278},{"Transaction_date":"1\/13\/0915:18","Product":"Product1","Price":"1200","Payment_Type":"Amex","Name":"Beatriz","City":"Centerport","State":"NY","Country":"UnitedStates","Account_Created":"1\/13\/0914:46","Last_Login":"1\/25\/0914:01","Latitude":"40.88528","Longitude":"-73.37667","id":279},{"Transaction_date":"1\/24\/098:21","Product":"Product1","Price":"1200","Payment_Type":"Mastercard","Name":"corina","City":"NeustiftamWalde","State":"Vienna","Country":"Austria","Account_Created":"7\/19\/0512:42","Last_Login":"1\/25\/0914:22","Latitude":"48.25","Longitude":"16.3","id":280},{"Transaction_date":"1\/24\/098:25","Product":"Product1","Price":"1200","Payment_Type":"Mastercard","Name":"manon","City":"NeustiftamWalde","State":"Vienna","Country":"Austria","Account_Created":"7\/19\/0512:42","Last_Login":"1\/25\/0914:22","Latitude":"48.25","Longitude":"16.3","id":281},{"Transaction_date":"1\/18\/0913:06","Product":"Product1","Price":"1200","Payment_Type":"Diners","Name":"Isabelle","City":"Shorewood","State":"MN","Country":"UnitedStates","Account_Created":"1\/18\/098:44","Last_Login":"1\/25\/0914:49","Latitude":"44.90333","Longitude":"-93.56611","id":282},{"Transaction_date":"1\/22\/0918:44","Product":"Product1","Price":"1200","Payment_Type":"Visa","Name":"Lynne","City":"Southlake","State":"TX","Country":"UnitedStates","Account_Created":"1\/22\/0917:24","Last_Login":"1\/25\/0915:02","Latitude":"32.94111","Longitude":"-97.13389","id":283},{"Transaction_date":"1\/8\/098:58","Product":"Product1","Price":"1200","Payment_Type":"Mastercard","Name":"Doug","City":"Huntington","State":"NY","Country":"UnitedStates","Account_Created":"1\/8\/098:22","Last_Login":"1\/25\/0917:39","Latitude":"40.86806","Longitude":"-73.42611","id":284},{"Transaction_date":"1\/4\/099:54","Product":"Product1","Price":"1200","Payment_Type":"Mastercard","Name":"AMY","City":"TheWoodlands","State":"TX","Country":"UnitedStates","Account_Created":"12\/30\/0820:41","Last_Login":"1\/25\/0918:23","Latitude":"30.15778","Longitude":"-95.48917","id":285},{"Transaction_date":"1\/13\/0920:22","Product":"Product1","Price":"1200","Payment_Type":"Visa","Name":"Kim","City":"Kelowna","State":"BritishColumbia","Country":"Canada","Account_Created":"8\/2\/0814:28","Last_Login":"1\/25\/0919:25","Latitude":"49.9","Longitude":"-119.4833333","id":286},{"Transaction_date":"1\/9\/0910:22","Product":"Product1","Price":"1200","Payment_Type":"Mastercard","Name":"HELIDA","City":"WhiteHouse","State":"TN","Country":"UnitedStates","Account_Created":"1\/5\/0914:49","Last_Login":"1\/25\/0919:35","Latitude":"36.47028","Longitude":"-86.65139","id":287},{"Transaction_date":"1\/5\/0912:28","Product":"Product1","Price":"1200","Payment_Type":"Visa","Name":"Cameron","City":"Rungsted","State":"Frederiksborg","Country":"Denmark","Account_Created":"1\/5\/0912:02","Last_Login":"1\/25\/0923:22","Latitude":"55.8841667","Longitude":"12.5419444","id":288},{"Transaction_date":"1\/26\/093:43","Product":"Product1","Price":"1200","Payment_Type":"Mastercard","Name":"Wendy","City":"LakeMahopac","State":"NY","Country":"UnitedStates","Account_Created":"1\/26\/093:10","Last_Login":"1\/26\/093:10","Latitude":"41.37222","Longitude":"-73.73389","id":289},{"Transaction_date":"1\/26\/093:49","Product":"Product2","Price":"3600","Payment_Type":"Mastercard","Name":"Jane","City":"Biot","State":"Provence-Alpes-Coted'Azur","Country":"France","Account_Created":"3\/1\/080:00","Last_Login":"1\/26\/093:18","Latitude":"43.6333333","Longitude":"7.1","id":290},{"Transaction_date":"1\/11\/0913:16","Product":"Product2","Price":"3600","Payment_Type":"Visa","Name":"shelby","City":"Plantation","State":"FL","Country":"UnitedStates","Account_Created":"1\/11\/0912:20","Last_Login":"1\/26\/093:42","Latitude":"26.12194","Longitude":"-80.14361","id":291},{"Transaction_date":"1\/22\/0915:32","Product":"Product1","Price":"1200","Payment_Type":"Mastercard","Name":"Tara","City":"Killiney","State":"Dublin","Country":"Ireland","Account_Created":"2\/27\/0711:35","Last_Login":"1\/26\/094:32","Latitude":"53.2522222","Longitude":"-6.1125","id":292},{"Transaction_date":"1\/9\/0914:25","Product":"Product1","Price":"1200","Payment_Type":"Amex","Name":"James","City":"Guer","State":"Brittany","Country":"France","Account_Created":"4\/7\/080:00","Last_Login":"1\/26\/095:32","Latitude":"47.9","Longitude":"-2.1166667","id":293},{"Transaction_date":"1\/21\/0911:28","Product":"Product1","Price":"800","Payment_Type":"Amex","Name":"Heloise","City":"Arlington","State":"VA","Country":"UnitedStates","Account_Created":"9\/25\/0520:26","Last_Login":"1\/26\/096:23","Latitude":"38.89028","Longitude":"-77.08444","id":294},{"Transaction_date":"1\/1\/0914:19","Product":"Product1","Price":"1200","Payment_Type":"Mastercard","Name":"Gabriel","City":"ThreeHills","State":"Alberta","Country":"Canada","Account_Created":"5\/21\/0811:39","Last_Login":"1\/26\/097:17","Latitude":"51.7","Longitude":"-113.2666667","id":295},{"Transaction_date":"1\/26\/094:30","Product":"Product1","Price":"1200","Payment_Type":"Visa","Name":"Jodie","City":"GreatFalls","State":"Virginia","Country":"UnitedStates","Account_Created":"1\/26\/090:00","Last_Login":"1\/26\/097:48","Latitude":"38.99806","Longitude":"-77.28861","id":296},{"Transaction_date":"1\/7\/094:45","Product":"Product1","Price":"1200","Payment_Type":"Amex","Name":"Jeremy","City":"London","State":"England","Country":"UnitedKingdom","Account_Created":"1\/7\/094:30","Last_Login":"1\/26\/098:01","Latitude":"51.52721","Longitude":"0.14559","id":297},{"Transaction_date":"1\/11\/0912:12","Product":"Product1","Price":"1200","Payment_Type":"Visa","Name":"Helga","City":"Clontarf","State":"Dublin","Country":"Ireland","Account_Created":"11\/30\/0512:50","Last_Login":"1\/26\/0910:00","Latitude":"53.3591667","Longitude":"-6.2161111","id":298},{"Transaction_date":"1\/26\/0910:24","Product":"Product1","Price":"1200","Payment_Type":"Visa","Name":"Eleanor","City":"Vancouver","State":"BritishColumbia","Country":"Canada","Account_Created":"12\/1\/0818:30","Last_Login":"1\/26\/0910:12","Latitude":"49.25","Longitude":"-123.1333333","id":299},{"Transaction_date":"1\/26\/098:58","Product":"Product1","Price":"1200","Payment_Type":"Diners","Name":"Miss","City":"London","State":"England","Country":"UnitedKingdom","Account_Created":"1\/26\/098:46","Last_Login":"1\/26\/0911:14","Latitude":"51.52721","Longitude":"0.14559","id":300},{"Transaction_date":"1\/7\/0917:51","Product":"Product1","Price":"1200","Payment_Type":"Visa","Name":"Marie","City":"Dickerson","State":"MD","Country":"UnitedStates","Account_Created":"1\/13\/069:38","Last_Login":"1\/26\/0911:35","Latitude":"39.22","Longitude":"-77.42444","id":301},{"Transaction_date":"1\/18\/0920:16","Product":"Product1","Price":"1200","Payment_Type":"Mastercard","Name":"Lisa","City":"Princeton","State":"NJ","Country":"UnitedStates","Account_Created":"1\/18\/0919:47","Last_Login":"1\/26\/0913:07","Latitude":"40.34861","Longitude":"-74.65944","id":302},{"Transaction_date":"1\/13\/099:51","Product":"Product1","Price":"1200","Payment_Type":"Mastercard","Name":"Priska","City":"Calgary","State":"Alberta","Country":"Canada","Account_Created":"1\/4\/0923:43","Last_Login":"1\/26\/0917:24","Latitude":"51.0833333","Longitude":"-114.0833333","id":303},{"Transaction_date":"1\/24\/0918:43","Product":"Product1","Price":"1200","Payment_Type":"Visa","Name":"Katrine","City":"NorthTustin","State":"CA","Country":"UnitedStates","Account_Created":"1\/11\/0913:33","Last_Login":"1\/26\/0921:29","Latitude":"33.76444","Longitude":"-117.79306","id":304},{"Transaction_date":"1\/5\/090:46","Product":"Product1","Price":"1200","Payment_Type":"Amex","Name":"Lisa","City":"Gurgaon","State":"Haryana","Country":"India","Account_Created":"1\/2\/093:03","Last_Login":"1\/27\/090:17","Latitude":"28.4666667","Longitude":"77.0333333","id":305},{"Transaction_date":"1\/9\/091:12","Product":"Product1","Price":"1200","Payment_Type":"Visa","Name":"Sabrina","City":"Rambouillet","State":"Ile-de-France","Country":"France","Account_Created":"6\/18\/086:35","Last_Login":"1\/27\/092:56","Latitude":"48.65","Longitude":"1.8333333","id":306},{"Transaction_date":"1\/26\/096:25","Product":"Product1","Price":"1200","Payment_Type":"Visa","Name":"prof","City":"Gladwyne","State":"PA","Country":"UnitedStates","Account_Created":"1\/19\/096:38","Last_Login":"1\/27\/093:58","Latitude":"40.04056","Longitude":"-75.27944","id":307},{"Transaction_date":"1\/21\/0916:57","Product":"Product1","Price":"1200","Payment_Type":"Mastercard","Name":"KeithMichelle","City":"Houston","State":"TX","Country":"UnitedStates","Account_Created":"1\/21\/0916:37","Last_Login":"1\/27\/094:43","Latitude":"29.76306","Longitude":"-95.36306","id":308},{"Transaction_date":"1\/5\/095:33","Product":"Product1","Price":"1200","Payment_Type":"Mastercard","Name":"Kim","City":"London","State":"England","Country":"UnitedKingdom","Account_Created":"12\/8\/0513:22","Last_Login":"1\/27\/094:49","Latitude":"51.52721","Longitude":"0.14559","id":309},{"Transaction_date":"1\/27\/095:10","Product":"Product1","Price":"1200","Payment_Type":"Visa","Name":"anissa","City":"Slough","State":"England","Country":"UnitedKingdom","Account_Created":"1\/15\/0910:07","Last_Login":"1\/27\/094:51","Latitude":"51.5","Longitude":"-0.5833333","id":310},{"Transaction_date":"1\/7\/098:00","Product":"Product1","Price":"1200","Payment_Type":"Mastercard","Name":"john","City":"Glan-Munchweiler","State":"Rhineland-Palatinate","Country":"Germany","Account_Created":"5\/26\/057:00","Last_Login":"1\/27\/096:30","Latitude":"49.4666667","Longitude":"7.4333333","id":311},{"Transaction_date":"1\/20\/097:08","Product":"Product2","Price":"3600","Payment_Type":"Visa","Name":"Miye","City":"Downingtown","State":"PA","Country":"UnitedStates","Account_Created":"1\/19\/098:06","Last_Login":"1\/27\/096:38","Latitude":"40.00639","Longitude":"-75.70361","id":312},{"Transaction_date":"1\/27\/092:26","Product":"Product1","Price":"1200","Payment_Type":"Diners","Name":"Heidi","City":"MTPleasant","State":"TX","Country":"UnitedStates","Account_Created":"1\/27\/092:16","Last_Login":"1\/27\/096:41","Latitude":"33.15667","Longitude":"-94.96806","id":313},{"Transaction_date":"1\/5\/096:14","Product":"Product1","Price":"1200","Payment_Type":"Mastercard","Name":"T","City":"Veigy-Foncenex","State":"Rhone-Alpes","Country":"France","Account_Created":"1\/5\/094:52","Last_Login":"1\/27\/097:01","Latitude":"46.2666667","Longitude":"6.25","id":314},{"Transaction_date":"1\/13\/098:11","Product":"Product2","Price":"3600","Payment_Type":"Visa","Name":"Daniele","City":"Katy","State":"TX","Country":"UnitedStates","Account_Created":"5\/27\/0811:01","Last_Login":"1\/27\/097:49","Latitude":"29.78556","Longitude":"-95.82417","id":315},{"Transaction_date":"1\/10\/099:18","Product":"Product1","Price":"1200","Payment_Type":"Diners","Name":"luisa","City":"Gorey","State":"","Country":"Jersey","Account_Created":"5\/9\/0610:43","Last_Login":"1\/27\/097:51","Latitude":"49.2","Longitude":"-2.0333333","id":316},{"Transaction_date":"1\/8\/0918:52","Product":"Product1","Price":"1200","Payment_Type":"Visa","Name":"Nadine","City":"Belgrade","State":"MT","Country":"UnitedStates","Account_Created":"1\/7\/0915:30","Last_Login":"1\/27\/099:40","Latitude":"45.77611","Longitude":"-111.17611","id":317},{"Transaction_date":"1\/12\/0910:06","Product":"Product1","Price":"1200","Payment_Type":"Mastercard","Name":"Tina","City":"Calgary","State":"Alberta","Country":"Canada","Account_Created":"1\/10\/0914:15","Last_Login":"1\/27\/0914:26","Latitude":"51.0833333","Longitude":"-114.0833333","id":318},{"Transaction_date":"1\/1\/0919:25","Product":"Product1","Price":"1200","Payment_Type":"Diners","Name":"Damali","City":"Toronto","State":"Ontario","Country":"Canada","Account_Created":"1\/8\/0820:41","Last_Login":"1\/27\/0914:59","Latitude":"43.6666667","Longitude":"-79.4166667","id":319},{"Transaction_date":"1\/27\/0915:28","Product":"Product1","Price":"1200","Payment_Type":"Visa","Name":"Katherine","City":"Corrales","State":"NM","Country":"UnitedStates","Account_Created":"1\/17\/0917:52","Last_Login":"1\/27\/0915:17","Latitude":"35.23778","Longitude":"-106.60611","id":320},{"Transaction_date":"1\/2\/0918:43","Product":"Product1","Price":"1200","Payment_Type":"Visa","Name":"Kathryn","City":"Cork","State":"Cork","Country":"Ireland","Account_Created":"12\/22\/0815:39","Last_Login":"1\/27\/0915:43","Latitude":"51.8986111","Longitude":"-8.4958333","id":321},{"Transaction_date":"1\/8\/0918:41","Product":"Product1","Price":"1200","Payment_Type":"Diners","Name":"Veronique","City":"Tenafly","State":"NJ","Country":"UnitedStates","Account_Created":"12\/9\/0717:59","Last_Login":"1\/27\/0918:12","Latitude":"40.92528","Longitude":"-73.96333","id":322},{"Transaction_date":"1\/4\/0918:34","Product":"Product1","Price":"1200","Payment_Type":"Visa","Name":"Erica","City":"Leesburg","State":"VA","Country":"UnitedStates","Account_Created":"1\/4\/0916:53","Last_Login":"1\/27\/0918:37","Latitude":"39.11556","Longitude":"-77.56389","id":323},{"Transaction_date":"1\/25\/098:32","Product":"Product1","Price":"1200","Payment_Type":"Visa","Name":"L","City":"Alcona","State":"Ontario","Country":"Canada","Account_Created":"9\/17\/0717:41","Last_Login":"1\/27\/0919:53","Latitude":"50.0666667","Longitude":"-91.75","id":324},{"Transaction_date":"1\/23\/0922:19","Product":"Product1","Price":"1200","Payment_Type":"Mastercard","Name":"Diana","City":"KualaLumpur","State":"KualaLumpur","Country":"Malaysia","Account_Created":"1\/23\/0922:10","Last_Login":"1\/27\/0919:54","Latitude":"3.1666667","Longitude":"101.7","id":325},{"Transaction_date":"1\/7\/0910:03","Product":"Product1","Price":"1200","Payment_Type":"Mastercard","Name":"Emma","City":"Sydney","State":"NewSouthWales","Country":"Australia","Account_Created":"12\/1\/086:09","Last_Login":"1\/27\/0920:18","Latitude":"-33.8833333","Longitude":"151.2166667","id":326},{"Transaction_date":"1\/18\/093:46","Product":"Product1","Price":"1200","Payment_Type":"Visa","Name":"Marina","City":"Nerang","State":"Queensland","Country":"Australia","Account_Created":"1\/18\/090:54","Last_Login":"1\/27\/0923:52","Latitude":"-27.9833333","Longitude":"153.3333333","id":327},{"Transaction_date":"1\/28\/090:40","Product":"Product1","Price":"1200","Payment_Type":"Mastercard","Name":"Natalie","City":"Bryceville","State":"FL","Country":"UnitedStates","Account_Created":"1\/27\/0922:04","Last_Login":"1\/28\/090:01","Latitude":"30.38444","Longitude":"-81.93889","id":328},{"Transaction_date":"1\/2\/0915:18","Product":"Product1","Price":"1200","Payment_Type":"Diners","Name":"Brenda","City":"SaffronWalden","State":"England","Country":"UnitedKingdom","Account_Created":"9\/1\/042:08","Last_Login":"1\/28\/091:26","Latitude":"52.0166667","Longitude":"0.25","id":329},{"Transaction_date":"1\/18\/0913:59","Product":"Product1","Price":"1200","Payment_Type":"Diners","Name":"Nita","City":"Sutton","State":"Dublin","Country":"Ireland","Account_Created":"12\/1\/0519:57","Last_Login":"1\/28\/094:07","Latitude":"53.3905556","Longitude":"-6.1216667","id":330},{"Transaction_date":"1\/16\/099:54","Product":"Product1","Price":"1200","Payment_Type":"Mastercard","Name":"Marian","City":"Durban","State":"KwaZulu-Natal","Country":"SouthAfrica","Account_Created":"8\/3\/0818:20","Last_Login":"1\/28\/096:26","Latitude":"-29.85","Longitude":"31.0166667","id":331},{"Transaction_date":"1\/28\/097:07","Product":"Product1","Price":"1200","Payment_Type":"Visa","Name":"Kevin","City":"Berkeswell","State":"England","Country":"UnitedKingdom","Account_Created":"1\/28\/096:57","Last_Login":"1\/28\/097:18","Latitude":"52.4","Longitude":"-1.6333333","id":332},{"Transaction_date":"1\/28\/097:31","Product":"Product1","Price":"1200","Payment_Type":"Visa","Name":"cari","City":"Dryden","State":"VA","Country":"UnitedStates","Account_Created":"1\/28\/097:22","Last_Login":"1\/28\/097:34","Latitude":"36.7775","Longitude":"-82.94167","id":333},{"Transaction_date":"1\/18\/0912:32","Product":"Product1","Price":"1200","Payment_Type":"Visa","Name":"Cassandra","City":"Santry","State":"Dublin","Country":"Ireland","Account_Created":"12\/14\/0814:26","Last_Login":"1\/28\/097:41","Latitude":"53.3986111","Longitude":"-6.2597222","id":334},{"Transaction_date":"1\/13\/0914:05","Product":"Product1","Price":"1200","Payment_Type":"Amex","Name":"ChristofandHeidi","City":"Barcelona","State":"Catalonia","Country":"Spain","Account_Created":"1\/9\/097:54","Last_Login":"1\/28\/097:45","Latitude":"41.3833333","Longitude":"2.1833333","id":335},{"Transaction_date":"1\/28\/097:49","Product":"Product1","Price":"1200","Payment_Type":"Visa","Name":"Ina","City":"Fayetteville","State":"NC","Country":"UnitedStates","Account_Created":"1\/28\/097:45","Last_Login":"1\/28\/097:47","Latitude":"35.0525","Longitude":"-78.87861","id":336},{"Transaction_date":"1\/28\/093:07","Product":"Product1","Price":"1200","Payment_Type":"Visa","Name":"Lisa","City":"AnseComeau","State":"Quebec","Country":"Canada","Account_Created":"1\/26\/0911:47","Last_Login":"1\/28\/098:08","Latitude":"49.2166667","Longitude":"-68.15","id":337},{"Transaction_date":"1\/12\/0915:16","Product":"Product1","Price":"1200","Payment_Type":"Visa","Name":"CamilleandCarmen","City":"Thorlakshofn","State":"","Country":"Iceland","Account_Created":"1\/12\/0911:41","Last_Login":"1\/28\/098:44","Latitude":"63.85","Longitude":"-21.3666667","id":338},{"Transaction_date":"1\/6\/0911:17","Product":"Product2","Price":"3600","Payment_Type":"Visa","Name":"Trina","City":"Overland","State":"KS","Country":"UnitedStates","Account_Created":"2\/21\/088:53","Last_Login":"1\/28\/099:23","Latitude":"38.98222","Longitude":"-94.67056","id":339},{"Transaction_date":"1\/23\/099:49","Product":"Product1","Price":"1200","Payment_Type":"Visa","Name":"Ginger","City":"KingCity","State":"Ontario","Country":"Canada","Account_Created":"1\/23\/098:18","Last_Login":"1\/28\/099:43","Latitude":"43.9333333","Longitude":"-79.5333333","id":340},{"Transaction_date":"1\/24\/094:01","Product":"Product1","Price":"1200","Payment_Type":"Visa","Name":"breon","City":"LeightonBuzzard","State":"England","Country":"UnitedKingdom","Account_Created":"1\/7\/0610:56","Last_Login":"1\/28\/0910:12","Latitude":"51.9166667","Longitude":"-0.65","id":341},{"Transaction_date":"1\/25\/0918:21","Product":"Product1","Price":"1200","Payment_Type":"Visa","Name":"Marion","City":"Umea","State":"Vasterbotten","Country":"Sweden","Account_Created":"1\/25\/0916:35","Last_Login":"1\/28\/0910:19","Latitude":"63.8333333","Longitude":"20.25","id":342},{"Transaction_date":"1\/15\/0910:51","Product":"Product1","Price":"1200","Payment_Type":"Mastercard","Name":"Pia","City":"Sola","State":"Rogaland","Country":"Norway","Account_Created":"1\/11\/098:54","Last_Login":"1\/28\/0910:39","Latitude":"58.8833333","Longitude":"5.6","id":343},{"Transaction_date":"1\/2\/095:14","Product":"Product1","Price":"1200","Payment_Type":"Visa","Name":"Dr.Donald","City":"Stockton-on-Tees","State":"England","Country":"UnitedKingdom","Account_Created":"1\/1\/056:03","Last_Login":"1\/28\/0911:07","Latitude":"54.5833333","Longitude":"-1.4166667","id":344},